Wind ID,Date/Time,Duration,Latitude,Longitude,Nearest town,State,Source,Max Gust speed,Max Gust direction,Max Mean Wind speed,Max Mean Wind direction,Path length,Path width,Path direction,Fujita scale
1376,2006-01-01 03:32:00,0,-36.88,149.24,Bombala,NSW,AWS,48,0,0,0,0,0,0,0
1377,2006-01-01 04:44:00,0,-35.94,148.38,Cabramurra,NSW,AWS,63,0,0,0,0,0,0,0
1378,2006-01-01 05:16:00,0,-36.23,149.12,Cooma,NSW,AWS,56,0,0,0,0,0,0,0
1379,2006-01-06 04:30:00,0,-30.93,151.72,walcha,NSW,SPOTTER,0,0,0,0,0,0,0,0
1380,2006-01-06 08:45:00,0,-28.85,153.05,Casino,NSW,AWS,54,0,0,0,0,0,0,0
1381,2006-01-12 04:30:00,30,-31.17,150.54,breeza,NSW,SPOTTER,49,220,0,0,0,0,0,0
1382,2006-01-16 01:40:00,0,-34.72,150.0,Marulan,NSW,SPOTTER,0,0,0,0,0,0,0,0
1383,2006-01-20 04:05:00,0,-31.98,141.47,Broken Hill,NSW,AWS,55,0,0,0,0,0,0,0
1384,2006-01-26 07:58:00,0,-35.53,144.93,Deniliquin,NSW,AWS,49,0,0,0,0,0,0,0
1385,2006-01-28 05:15:00,0,-35.45,149.8,Braidwood,NSW,AWS,48,0,0,0,0,0,0,0
1386,2006-02-09 05:00:00,0,-32.59,149.58,mudgee,NSW,SPOTTER,0,0,0,0,0,0,0,0
1387,2006-02-09 07:26:00,0,-31.77,151.07,Murrurundi,NSW,AWS,56,0,0,0,0,0,0,0
1388,2006-02-09 07:37:00,0,-30.33,149.77,Narrabri,NSW,AWS,65,0,0,0,0,0,0,0
1389,2006-02-13 05:00:00,0,-29.45,153.22,Maclean,NSW,SPOTTER,0,0,0,0,0,0,0,0
1390,2006-02-13 05:36:00,0,-30.99,150.25,Gunnedah,NSW,AWS,54,0,0,0,0,0,0,0
1391,2006-02-15 06:46:00,0,-32.21,148.57,Dubbo,NSW,AWS,50,0,0,0,0,0,0,0
1392,2006-02-15 10:00:00,0,-30.99,150.25,Gunnedah,NSW,AWS,53,0,0,0,0,0,0,0
1393,2006-02-16 06:17:00,0,-33.39,148.01,Forbes,NSW,AWS,48,0,0,0,0,0,0,0
1394,2006-02-18 05:30:00,0,-33.14,148.15,Parkes,NSW,SPOTTER,0,0,0,0,0,0,0,0
1395,2006-02-18 05:59:00,0,-31.99,147.95,Trangie,NSW,AWS,51,0,0,0,0,0,0,0
1396,2006-02-26 05:00:00,0,-32.376,151.995,Stroud,NSW,"MEDIA, SES",0,0,0,0,0,0,0,0
1397,2006-04-04 07:10:00,0,-28.65,153.62,Byron Bay,NSW,MEDIA,0,0,0,0,0,0,0,0
1398,2006-10-26 08:30:00,0,-28.649,153.118,Larnook,NSW,,0,0,0,0,0,0,0,0
1399,2006-10-31 05:07:00,23,-32.965,151.701,kahibah,NSW,SPOTTER,50,360,0,0,0,0,0,0
1400,2006-11-02 02:08:00,0,-35.417,149.1,Tuggeranong,NSW,AWS,53,350,0,0,0,0,0,0
1401,2006-11-02 05:01:00,0,-33.39,148.01,Forbes,NSW,AWS,50,340,0,0,0,0,0,0
1402,2006-11-02 06:32:00,0,-30.25,149.68,Narrabri,NSW,SPOTTER,51,0,0,0,0,0,0,0
1403,2006-11-08 02:50:00,20,-29.832,152.885,Coutts Crossing,NSW,SPOTTER,0,0,0,0,0,0,0,0
1404,2006-11-12 22:30:00,180,-30.365,152.885,Promised Land,NSW,SPOTTER,54,288,0,0,0,0,0,0
1405,2006-11-13 01:48:00,6,-32.965,151.701,Kahibah,NSW,SPOTTER,51,198,0,0,0,0,0,0
1406,2006-11-13 02:33:00,0,-31.77,151.07,Murrurundi,NSW,AWS,73,330,0,0,0,0,0,0
1407,2006-11-13 02:55:00,0,-32.05,150.85,Scone,NSW,AWS,55,0,0,0,0,0,0,0
1408,2006-11-13 04:00:00,45,-30.215,151.668,guyra,NSW,SPOTTER,48,225,0,0,0,0,0,0
1409,2006-11-13 04:15:00,5,-31.0,151.233,Woolbrook,NSW,SPOTTER,49,315,0,0,0,0,0,0
1410,2006-11-22 05:39:00,0,-32.924,151.801,Nobbys Head,NSW,AWS,52,0,0,0,0,0,0,0
1411,2006-11-22 06:00:00,0,-32.898,151.735,Mayfield,NSW,SPOTTER,50,0,0,0,0,0,0,0
1412,2006-11-27 07:51:00,0,-29.74,151.74,Glen Innes,NSW,AWS,49,110,0,0,0,0,0,0
1413,2006-11-27 08:00:00,150,-30.382,152.885,gleniffer,NSW,SPOTTER,49,45,0,0,0,0,0,0
1414,2006-11-28 03:42:00,0,-32.665,150.185,Nullo Mountain,NSW,AWS,55,240,0,0,0,0,0,0
1415,2006-11-28 04:30:00,30,-32.265,150.885,MUSWELLBROOK,NSW,SPOTTER,59,0,0,0,0,0,0,0
1416,2006-11-28 04:40:00,40,-32.92,151.79,Newcastle,NSW,MEDIA,0,0,0,0,0,0,0,0
1417,2006-11-28 04:58:00,0,-32.81,151.35,Cessnock,NSW,AWS,51,260,0,0,0,0,0,0
1418,2006-11-28 08:20:00,0,-30.315,153.118,Coffs Harbour,NSW,AWS,50,220,0,0,0,0,0,0
1419,2006-11-28 08:20:00,40,-30.265,153.135,Korora,NSW,SPOTTER,59,180,0,0,0,0,0,0
1420,2006-11-28 10:20:00,0,-30.52,151.67,Armidale,NSW,AWS,57,300,0,0,0,0,0,0
1421,2006-11-29 06:51:00,0,-29.68,152.93,Grafton,NSW,AWS,53,160,0,0,0,0,0,0
1422,2006-11-29 08:00:00,0,-29.115,153.435,Evans Head,NSW,AWS,51,180,0,0,0,0,0,0
1423,2006-12-11 07:30:00,0,-31.68,145.48,Cobar,NSW,SPOTTER,0,0,0,0,0,0,0,0
1424,2006-12-12 04:30:00,40,-30.74,151.53,Uralla,NSW,SPOTTER,0,0,0,0,0,0,0,0
1425,2006-12-12 04:30:00,40,-30.441,151.353,Yarrowyck,NSW,SPOTTER,0,360,0,0,0,0,0,0
1426,2006-12-21 04:30:00,0,-30.52,151.67,Armidale,NSW,"SPOTTERS, MEDIA, SES",0,0,0,0,0,0,0,0
1427,2006-12-22 05:19:00,0,-31.45,142.13,Broken Hill,NSW,AWS,54,290,0,0,0,0,0,0
1428,2006-12-31 19:00:00,0,-31.45,142.13,Broken Hill,NSW,SES,0,0,0,0,0,0,0,0
1429,2007-01-12 02:41:00,0,-30.8,149.55,Coonabarabran,NSW,AWS,67,250,0,0,0,0,0,0
1430,2007-01-15 08:45:00,30,-31.43,147.27,Nyngan,NSW,"SES, MEDIA",0,0,0,0,0,0,0,0
1431,2007-01-16 07:10:00,0,-35.25,147.34,Wagga Wagga,NSW,SES,0,0,0,0,0,0,0,0
1432,2007-01-16 07:14:00,0,-32.12,147.62,Trangie,NSW,AWS,55,360,0,0,0,0,0,0
1433,2007-01-18 05:37:00,0,-33.43,149.56,Bathurst,NSW,AWS,56,10,0,0,0,0,0,0
1434,2007-01-27 04:58:00,0,-31.89,152.55,Taree,NSW,AWS,48,180,0,0,0,0,0,0
1435,2007-02-07 05:15:00,30,-31.71,148.67,gilgandra,NSW,SPOTTER,48,315,0,0,0,0,0,0
1436,2007-02-07 07:15:00,35,-32.05,150.87,scone,NSW,SPOTTER,54,225,0,0,0,0,0,0
1437,2007-02-07 07:18:00,0,-32.05,150.85,Scone,NSW,AWS,54,240,0,0,0,0,0,0
1438,2007-02-07 07:20:00,0,-32.05,150.85,Scone,NSW,AWS,59,240,0,0,0,0,0,0
1439,2007-02-07 07:27:00,0,-32.05,150.85,Scone,NSW,AWS,61,230,0,0,0,0,0,0
1440,2007-02-07 09:14:00,0,-32.97,151.7,kahibah,NSW,SPOTTER,51,225,0,0,0,0,0,0
1441,2007-02-24 04:52:00,0,-33.75,150.68,Penrith,NSW,AWS,54,240,0,0,0,0,0,0
1442,2007-02-24 04:55:00,0,-33.75,150.68,Penrith,NSW,AWS,56,200,0,0,0,0,0,0
1443,2007-02-26 04:14:00,0,-30.82,148.23,Coonamble,NSW,AWS,53,190,0,0,0,0,0,0
1444,2007-02-28 03:24:00,0,-32.21,148.57,Dubbo,NSW,AWS,55,350,0,0,0,0,0,0
1445,2007-02-28 06:30:00,20,-32.965,151.701,Kahibah,NSW,SPOTTER,48,235,0,0,0,0,0,0
1446,2007-02-28 07:00:00,20,-33.715,151.285,Narrabeen,NSW,SPOTTER,54,0,0,0,0,0,0,0
1447,2007-02-28 07:30:00,30,-29.68,152.93,Grafton,NSW,SPOTTER,0,0,0,0,0,0,0,0
1448,2007-03-01 03:15:00,0,-30.99,150.26,Gunnedah,NSW,SPOTTER,62,0,0,0,0,0,0,0
1449,2007-03-01 08:00:00,0,-33.87,150.64,Wallacia,NSW,MEDIA,0,0,0,0,0,0,0,0
1450,2007-03-04 11:00:00,90,-34.082,150.501,Oakdale,NSW,SPOTTER,54,250,0,0,0,0,0,0
1451,2007-03-05 05:43:00,0,-34.03,150.65,Camden,NSW,AWS,59,250,0,0,0,0,0,0
1452,2007-03-05 06:30:00,10,-33.71,151.08,Hornsby,NSW,MEDIA/SES,0,0,0,0,0,0,0,0
1453,2007-03-05 08:13:00,0,-33.282,151.568,Norah Head,NSW,AWS,79,160,0,0,0,0,0,0
1454,2007-03-08 04:22:00,0,-34.55,150.37,Moss Vale,NSW,AWS,55,230,0,0,0,0,0,0
1455,2007-03-08 05:00:00,0,-34.411,150.893,North Wollongong,NSW,BUREAU STAFF,0,0,0,0,0,0,0,0
1456,2007-04-20 06:10:00,30,-29.68,152.93,Grafton,NSW,SPOTTER,50,0,0,0,0,0,0,0
1457,2007-09-14 03:47:00,13,-31.74,150.79,Murrurundi,NSW,AWS,48,310,0,0,0,0,0,0
1458,2007-09-14 06:55:00,8,-31.7416,150.7937,Murrurundi,NSW,AWS,50,300,0,0,0,0,0,0
1459,2007-10-08 00:30:00,10,-30.43,152.9,Bellingen,NSW,SPOTTER,49,90,0,0,0,0,0,0
1460,2007-10-08 01:25:00,10,-30.42,152.03,THORA,NSW,SPOTTER,0,0,0,0,0,0,0,0
1461,2007-10-08 03:40:00,20,-29.72,151.75,Glen Innes,NSW,SPOTTER,49,0,0,0,0,0,0,0
1462,2007-10-08 06:30:00,20,-28.8,153.32,Goonellabah,NSW,SPOTTER,49,90,0,0,0,0,0,0
1463,2007-10-09 03:35:00,25,-28.8,153.28,Lismore,NSW,SPOTTER,54,180,0,0,0,0,0,0
1464,2007-10-09 04:00:00,15,-28.8,153.28,Lismore,NSW,SPOTTER,0,0,0,0,0,0,0,0
1465,2007-10-11 09:20:00,20,-30.03,149.77,Narrabri west,NSW,AWS,53,0,0,0,0,0,0,0
1466,2007-10-11 09:20:00,20,-30.35,149.77,Narrabri,NSW,SPOTTER,61,0,0,0,0,0,0,0
1467,2007-10-26 07:30:00,30,-32.9,151.7,New Lambton,NSW,SPOTTER,54,0,0,0,0,0,0,0
1468,2007-11-18 06:04:00,26,-34.23,146.07,Griffith,NSW,AWS,50,10,0,0,0,0,0,0
1469,2007-11-29 01:10:00,20,-34.63,148.03,Cootamundra,NSW,SPOTTER,54,40,0,0,0,0,0,0
1470,2007-12-03 02:00:00,20,-35.83,145.77,Berrigan,NSW,SPOTTER,0,0,0,0,0,0,0,0
1471,2007-12-03 04:30:00,30,-32.95,151.7,Kahibah,NSW,SPOTTER,50,340,0,0,0,0,0,0
1472,2007-12-03 04:37:00,12,-32.92,151.78,Newcastle,NSW,AWS,48,300,0,0,0,0,0,0
1473,2007-12-06 07:10:00,10,-29.49,149.84,Moree,NSW,AWS,50,260,0,0,0,0,0,0
1474,2007-12-07 03:02:00,11,-33.13,148.24,Parkes,NSW,AWS,55,310,0,0,0,0,0,0
1475,2007-12-07 07:20:00,30,-31.08,150.92,Tamworth,NSW,SES,0,0,0,0,0,0,0,0
1476,2007-12-09 04:35:00,0,-33.81,150.95,Blacktown,NSW,SPOTTER,49,0,0,0,0,0,0,0
1477,2007-12-09 07:27:00,18,-32.95,151.7,Kahibah,NSW,SPOTTER,49,160,0,0,0,0,0,0
1478,2007-12-09 07:30:00,10,-33.16,151.41,Mandalong,NSW,SPOTTER,0,180,0,0,0,0,0,0
1479,2007-12-09 08:00:00,3,-32.92,151.8,Newcastle,NSW,AWS,48,190,0,0,0,0,0,0
1480,2007-12-16 06:47:00,3,-30.98,148.38,Coonamble,NSW,AWS,50,180,0,0,0,0,0,0
1481,2007-12-20 06:47:00,11,-35.56,144.95,Deniliquin,NSW,AWS,59,180,0,0,0,0,0,0
1482,2007-12-21 04:30:00,40,-31.98,141.47,Broken Hill,NSW,SPOTTER,65,270,0,0,0,0,0,0
1483,2007-12-21 04:31:00,29,-31.98,141.47,Broken Hill,NSW,SPOTTER,69,0,0,0,0,0,0,0
1484,2007-12-21 04:52:00,18,-32.0,141.47,Broken Hill,NSW,AWS,65,300,0,0,0,0,0,0
1485,2007-12-21 05:20:00,13,-31.52,143.34,Wilcannia,NSW,AWS,56,330,0,0,0,0,0,0
1486,2007-12-21 05:30:00,20,-31.09,141.7,Fowlers Gap,NSW,AWS,51,270,0,0,0,0,0,0
1487,2007-12-21 05:44:00,14,-32.88,144.31,Ivanhoe,NSW,AWS,54,250,0,0,0,0,0,0
1488,2007-12-21 10:21:00,10,-33.36,147.92,Forbes,NSW,AWS,52,260,0,0,0,0,0,0
1489,2007-12-21 13:19:00,13,-31.09,141.7,Fowlers Gap,NSW,AWS,49,330,0,0,0,0,0,0
1490,2008-01-11 05:12:00,11,-35.56,144.95,Deniliquin,NSW,AWS,49,250,0,0,0,0,0,0
1491,2008-01-12 08:50:00,20,-34.63,149.97,Brayton,NSW,SPOTTER,0,0,0,0,0,0,0,0
1492,2008-01-13 04:28:00,7,-33.72,150.68,Penrith,NSW,AWS,55,110,0,0,0,0,0,0
1493,2008-01-13 05:25:00,0,-34.07,150.57,The Oaks,NSW,SPOTTER,0,0,0,0,0,0,0,0
1494,2008-01-16 05:00:00,30,-33.77,150.79,St Marys,NSW,SPOTTER,54,0,0,0,0,0,0,0
1495,2008-01-29 06:41:00,10,-31.33,149.27,Coonabarabran,NSW,AWS,50,70,0,0,0,0,0,0
1496,2008-01-31 07:00:00,15,-33.92,150.98,Bankstown,NSW,SPOTTER,0,200,0,0,0,0,0,0
1497,2008-01-31 07:18:00,14,-33.98,150.93,Holsworthy,NSW,AWS,52,180,0,0,0,0,0,0
1498,2008-01-31 08:00:00,0,-33.7,150.92,Kellyville ridge,NSW,SPOTTER,0,0,0,0,0,0,0,0
1499,2008-01-31 08:10:00,30,-33.73,150.87,Quakers hill,NSW,SPOTTER,49,0,0,0,0,0,0,0
1500,2008-01-31 09:09:00,10,-31.07,150.84,Tamworth,NSW,AWS,50,170,0,0,0,0,0,0
1501,2008-02-07 04:26:00,0,-32.92,151.79,Newcastle,NSW,AWS,52,350,0,0,0,0,0,0
1502,2008-02-26 04:50:00,30,-34.07,150.57,The Oaks,NSW,SPOTTER,0,0,0,0,0,0,0,0
1503,2008-03-07 12:00:00,0,-33.12,151.42,Mandalong,NSW,SPOTTER,49,225,0,0,0,0,0,0
1504,2008-03-20 08:01:00,9,-34.65,150.86,Kiama,NSW,AWS,49,240,0,0,0,0,0,0
1505,2008-03-27 06:00:00,30,-30.07,153.2,Mullaway,NSW,MEDIA/SES,0,0,0,0,0,0,0,0
1506,2008-03-28 03:30:00,30,-30.63,152.98,Nambucca Heads,NSW,MEDIA/SES,0,0,0,0,0,0,0,0
1507,2008-04-13 08:10:00,19,-34.14,151.12,Wattamolla,NSW,AWS,53,160,0,0,0,0,0,0
1508,2008-04-27 04:35:00,13,-33.07,147.21,Condobolin,NSW,AWS,55,310,0,0,0,0,0,0
1509,2008-04-27 05:25:00,15,-33.36,147.92,Forbes,NSW,AWS,49,310,0,0,0,0,0,0
1510,2008-08-22 05:56:00,5,-28.835,153.559,Ballina,NSW,AWS,51,260,0,0,0,0,0,0
1511,2008-09-13 07:21:00,10,-34.705,146.514,Narrandera,NSW,AWS,50,10,0,0,0,0,0,0
1512,2008-09-13 22:16:00,17,-36.492,148.286,Thredbo Village,NSW,AWS,67,360,0,0,0,0,0,0
1513,2008-09-13 23:12:00,18,-35.529,148.772,Mount Ginini,NSW,AWS,51,360,0,0,0,0,0,0
1514,2008-09-14 00:01:00,14,-35.937,148.378,Cabramurra,NSW,AWS,56,300,0,0,0,0,0,0
1515,2008-09-14 00:16:00,13,-35.529,148.772,Mount Ginini,NSW,AWS,53,360,0,0,0,0,0,0
1516,2008-09-14 06:19:00,2,-33.619,150.274,Mount Boyce,NSW,AWS,50,270,0,0,0,0,0,0
1517,2008-09-21 03:40:00,0,-29.049,152.02,Tenterfield,NSW,SPOTTER,0,0,0,0,0,0,0,0
1518,2008-09-21 20:36:00,33,-31.087,141.702,Fowlers Gap,NSW,AWS,62,330,0,0,0,0,0,0
1519,2008-09-21 22:56:00,17,-32.0,141.47,Broken Hill,NSW,AWS,53,350,0,0,0,0,0,0
1520,2008-09-22 01:54:00,85,-34.541,144.835,Hay,NSW,AWS,56,330,0,0,0,0,0,0
1521,2008-09-22 01:55:00,84,-34.519,144.855,Hay,NSW,SES,0,0,0,0,0,0,0,0
1522,2008-09-22 04:39:00,5,-32.0,141.469,Broken Hill,NSW,AWS,63,290,0,0,0,0,0,0
1523,2008-09-22 06:27:00,14,-34.809,149.731,Goulburn,NSW,AWS,54,310,0,0,0,0,0,0
1524,2008-09-22 06:32:00,28,-29.445,142.057,Tibooburra,NSW,AWS,60,300,0,0,0,0,0,0
1525,2008-10-03 06:11:00,15,-30.852,143.074,White Cliffs,NSW,AWS,58,300,0,0,0,0,0,0
1526,2008-10-03 06:50:00,14,-33.938,147.196,West Wyalong,NSW,AWS,49,310,0,0,0,0,0,0
1527,2008-10-04 05:15:00,1,-30.082,145.951,Bourke,NSW,SES,0,0,0,0,0,0,0,0
1528,2008-10-06 04:00:00,60,-33.8985,150.9346,Cabramatta,NSW,AWS,45,0,0,0,0,0,0,0
1529,2008-10-10 05:00:00,0,-33.5318,149.2512,Blayney,NSW,SPOTTER,0,0,0,0,0,0,0,0
1530,2008-10-13 06:03:00,0,-36.2519,150.2275,YMNI,NSW,AWS,58,0,0,0,0,0,0,0
2170,2006-01-19 11:00:00,0,-36.7113,142.2027,HORSHAM,VIC,,100,0,0,0,0,0,0,0
2171,2006-01-19 12:15:00,0,-37.4076,142.4126,MIRRANATWA,VIC,,90,0,0,0,0,0,0,0
2172,2006-01-19 12:30:00,0,-37.7153,142.8394,LAKE BOLAC,VIC,SPOTTER,110,120,0,0,0,0,0,0
2173,2006-01-20 05:00:00,0,-37.9543,143.3404,LISMORE,VIC,ses,90,230,0,0,0,0,0,0
2174,2006-01-21 08:30:00,0,-36.8725,143.9631,EASTVILLE,VIC,SPOTTER,90,0,0,0,0,0,0,0
2175,2006-01-21 10:30:00,0,-34.3051,142.188,RED CLIFFS,VIC,SPOTTER,100,0,0,0,0,0,0,0
2176,2006-01-21 12:00:00,0,-37.7516,144.9093,ESSENDON,VIC,,100,0,0,0,0,0,0,0
2177,2006-01-26 08:30:00,0,-37.7338,145.4499,GRUYERE,VIC,SPOTTER,100,0,0,0,0,0,0,0
2178,2006-01-26 09:30:00,0,-37.826,145.1514,BLACKBURN,VIC,,100,0,0,0,0,0,0,0
2179,2006-01-27 03:15:00,0,-37.8621,144.8891,WILLIAMSTOWN,VIC,SPOTTER,93,0,0,0,0,0,0,0
2180,2006-01-27 03:45:00,0,-35.3393,143.5552,SWAN HILL,VIC,,88,0,0,0,0,0,0,0
2181,2006-01-27 04:15:00,0,-37.6823,144.5801,MELTON,VIC,SPOTTER,90,0,0,0,0,0,0,0
2182,2006-01-27 04:30:00,0,-38.1582,145.1351,FRANKSTON,VIC,AWS,135,270,0,0,0,0,0,0
2183,2006-01-27 05:50:00,0,-38.1341,145.8545,DROUIN,VIC,SPOTTER,90,0,0,0,0,0,0,0
2184,2006-01-27 06:15:00,0,-36.5516,145.98,BENALLA,VIC,SES,90,0,0,0,0,0,0,0
2185,2006-01-27 06:30:00,0,-37.7336,148.0908,NOWA NOWA,VIC,CFA,100,0,0,0,0,0,0,0
2186,2006-01-27 06:45:00,0,-38.3808,146.2731,BOOLARRA,VIC,CFA/media,100,0,0,0,0,0,0,0
2187,2006-01-27 10:40:00,0,-37.86,145.3143,THE BASIN,VIC,SES,90,0,0,0,0,0,0,0
2188,2006-01-29 08:30:00,0,-36.056,144.1148,PYRAMID HILL,VIC,SPOTTER,100,0,0,0,0,0,0,0
2189,2006-02-24 22:00:00,30,-37.8577,141.7971,BRANXHOLME,VIC,ses,90,0,0,0,0,0,0,0
2190,2006-04-14 02:00:00,0,-36.3593,146.3124,WANGARATTA,VIC,,90,0,0,0,0,0,0,0
2191,2006-09-23 22:00:00,0,-37.7693,145.045,IVANHOE,VIC,SPOTTER,100,0,0,0,0,0,0,0
2192,2006-11-02 06:40:00,0,-36.9377,145.1743,MANGALORE,VIC,SPOTTER,100,0,0,0,0,0,0,0
2193,2006-11-20 23:45:00,0,-36.7113,142.2027,HORSHAM,VIC,SPOTTER,100,0,0,0,0,0,0,0
2194,2006-11-21 04:30:00,0,-36.9108,146.6993,Aararat,VIC,AWS,100,0,0,0,0,0,0,0
2195,2007-01-06 07:30:00,0,-35.3393,143.5552,SWAN HILL,VIC,AWS,104,0,0,0,0,0,0,0
2196,2007-01-16 04:30:00,0,-37.8789,145.4169,MONBULK,VIC,SPOTTER,90,0,0,0,0,0,0,0
2197,2007-05-03 04:00:00,0,-37.3568,144.5285,WOODEND,VIC,SPOTTER,140,330,0,0,0,0,0,0
2198,2007-05-03 06:00:00,0,-37.2333,145.9078,EILDON,VIC,AWS,94,270,0,0,0,0,0,0
2199,2007-05-03 08:00:00,0,-36.985,147.1473,HOTHAM HEIGHTS,VIC,AWS,139,330,0,0,0,0,0,0
2200,2007-10-16 00:00:00,0,-37.4759,149.591,GENOA,VIC,,100,0,0,0,0,0,0,0
2201,2007-12-20 05:15:00,0,-36.761,144.279,BENDIGO,VIC,SPOTTER,90,0,0,0,0,0,0,0
2202,2007-12-20 05:40:00,0,-36.3598,144.6997,ROCHESTER,VIC,SPOTTER,90,0,0,0,0,0,0,0
2203,2007-12-20 05:55:00,0,-37.8827,145.0932,CHADSTONE,VIC,,90,0,0,0,0,0,0,0
2204,2007-12-21 02:00:00,0,-37.0583,142.7784,STAWELL,VIC,,0,0,0,0,0,0,0,0
2205,2008-01-11 03:00:00,0,-36.6151,145.24,MURCHISON EAST,VIC,SPOTTER,100,0,0,0,0,0,0,0
3407,2006-01-21 23:45:00,0,-35.11,137.74,Edithburgh,SA,aws,49,340,0,0,0,0,0,0
3408,2006-01-22 05:10:00,0,-26.26,132.18,Ernabella,SA,aws,55,140,0,0,0,0,0,0
3409,2006-02-23 06:50:00,0,-35.38,140.54,Lameroo,SA,aws,58,360,0,0,0,0,0,0
3410,2006-03-11 19:30:00,0,-34.26,135.73,Cummins,SA,,45,0,0,0,0,0,0,0
3411,2006-05-06 08:00:00,30,-35.76,136.6,Cape Borda,SA,AWS,51,330,0,0,0,0,0,0
3412,2006-05-06 10:00:00,30,-35.08,137.73,Edithburgh,SA,AWS,51,330,0,0,0,0,0,0
3413,2006-05-06 10:00:00,30,-34.65,137.62,Minlaton,SA,AWS,50,270,0,0,0,0,0,0
3414,2006-05-06 12:00:00,30,-36.03,140.58,Keith,SA,AWS,49,330,0,0,0,0,0,0
3415,2006-07-30 10:00:00,60,-35.15,138.27,Port Willunga,SA,SES,50,280,0,0,0,0,0,0
3416,2006-08-15 23:10:00,0,-35.84,138.13,Cape Willoughby,SA,AWS,56,350,0,0,0,0,0,0
3417,2006-08-16 00:10:00,0,-34.65,137.62,Minlaton,SA,AWS,52,360,0,0,0,0,0,0
3418,2006-08-16 01:00:00,0,-33.7,136.49,Cleve,SA,AWS,50,350,0,0,0,0,0,0
3419,2006-08-16 02:05:00,0,-35.33,138.5,Sellicks Hill,SA,AWS,50,350,0,0,0,0,0,0
3420,2006-08-16 03:00:00,0,-35.33,138.5,Sellicks Hill,SA,AWS,50,350,0,0,0,0,0,0
3421,2006-08-16 04:50:00,0,-35.52,138.82,Hindmarsh Island,SA,AWS,51,320,0,0,0,0,0,0
3422,2006-09-21 15:35:00,0,-35.33,138.5,Sellicks hill,SA,AWS,49,350,0,0,0,0,0,0
3423,2006-09-22 02:30:00,0,-35.71,137.52,Kingscote ap,SA,Rainfall observer,55,270,0,0,0,0,0,0
3424,2006-09-22 04:20:00,0,-37.29,140.82,Coonawarra,SA,AWS,49,310,0,0,0,0,0,0
3425,2006-09-22 05:00:00,0,-36.97,139.72,Cape Jaffa,SA,AWS,55,290,0,0,0,0,0,0
3426,2006-09-22 06:45:00,0,-36.95,140.0,Robe,SA,AWS,49,290,0,0,0,0,0,0
3427,2006-09-22 07:35:00,0,-37.29,140.82,Coonawarra,SA,AWS,53,280,0,0,0,0,0,0
3428,2006-09-22 07:50:00,0,-36.83,140.53,Naracoorte,SA,AWS,57,290,0,0,0,0,0,0
3429,2006-09-23 18:00:00,0,-34.65,137.62,Minlaton,SA,AWS,51,260,0,0,0,0,0,0
3430,2006-09-23 19:25:00,0,-35.11,137.74,Edithburgh,SA,AWS,50,260,0,0,0,0,0,0
3431,2006-09-23 21:10:00,0,-35.84,138.13,Cape Willoughby aws,SA,AWS,49,230,0,0,0,0,0,0
3432,2006-09-24 02:30:00,0,-35.36,139.95,Lameroo,SA,AWS,54,250,0,0,0,0,0,0
3433,2006-10-11 23:00:00,240,-35.5,138.76,Goolwa,SA,Hindmarsh Island AWS,51,310,0,0,0,0,0,0
3434,2006-11-01 11:00:00,0,-29.01,134.75,Coober Pedy,SA,AWS,49,220,0,0,0,0,0,0
3435,2006-11-14 19:05:00,0,-35.84,138.13,Cape Willoughby,SA,AWS,54,220,0,0,0,0,0,0
3436,2006-11-14 20:05:00,0,-36.97,139.72,Cape Jaffa,SA,AWS,50,210,0,0,0,0,0,0
3437,2006-12-01 10:30:00,0,-27.54,135.44,Oodnadatta,SA,AWS,60,240,0,0,0,0,0,0
3438,2006-12-21 06:25:00,0,-33.7,136.49,Cleve,SA,AWS,59,360,0,0,0,0,0,0
3439,2006-12-21 08:40:00,0,-33.21,137.36,Whyalla,SA,AWS,49,280,0,0,0,0,0,0
3440,2007-01-05 08:03:00,9,-27.54,135.44,Oodnadatta,SA,AWS,52,360,0,0,0,0,0,0
3441,2007-01-06 05:25:00,0,-34.17,140.75,Renmark,SA,AWS,49,290,0,0,0,0,0,0
3442,2007-01-20 09:30:00,0,-35.579,137.323,Cape Cassini,SA,Spotter,49,270,0,0,0,0,0,0
3443,2007-01-20 10:00:00,0,-35.76,136.6,Cape Borda,SA,AWS,53,270,0,0,0,0,0,0
3444,2007-02-20 07:45:00,0,-30.71,134.57,Tarcoola,SA,AWS,63,160,0,0,0,0,0,0
3445,2007-03-23 07:55:00,0,-27.54,135.44,Oodnadatta,SA,AWS,51,200,0,0,0,0,0,0
3446,2007-05-01 07:05:00,0,-35.33,138.5,Sellicks Hill,SA,AWS,51,350,0,0,0,0,0,0
3447,2007-05-28 18:45:00,0,-35.33,138.5,Sellicks Hill,SA,AWS,49,330,0,0,0,0,0,0
3448,2007-05-28 21:30:00,0,-34.65,137.62,Minlaton,SA,AWS,51,270,0,0,0,0,0,0
3449,2007-05-29 00:17:00,0,-34.85,138.65,Adelaide,SA,Spotter,50,240,0,0,0,0,0,0
3450,2007-05-29 03:25:00,0,-34.64,135.69,Port Lincoln,SA,Davis weather station,56,270,0,0,0,0,0,0
3451,2007-05-29 03:45:00,0,-34.65,137.62,Minlaton,SA,AWS,49,270,0,0,0,0,0,0
3452,2007-05-29 04:45:00,0,-34.07,137.59,Moonta,SA,AWS,50,270,0,0,0,0,0,0
3453,2007-05-29 05:05:00,0,-34.65,137.62,Minlaton,SA,AWS,51,270,0,0,0,0,0,0
3454,2007-05-29 05:55:00,0,-35.33,138.5,Sellicks Hill,SA,AWS,51,280,0,0,0,0,0,0
3455,2007-05-29 06:30:00,0,-34.65,137.62,Minlaton,SA,AWS,51,270,0,0,0,0,0,0
3456,2007-05-29 08:20:00,0,-35.84,138.13,Cape Willoughby,SA,AWS,49,260,0,0,0,0,0,0
3457,2007-05-29 08:30:00,0,-33.18,138.01,Port Pirie,SA,Tide gauge site AWS,49,255,0,0,0,0,0,0
3458,2007-05-29 10:45:00,0,-35.84,138.13,Cape Willoughby,SA,AWS,54,230,0,0,0,0,0,0
3459,2007-07-02 03:25:00,0,-35.29,138.89,Strathalbyn,SA,AWS,53,320,0,0,0,0,0,0
3460,2007-07-04 02:15:00,0,-34.39,135.37,Coles Point,SA,AWS,49,270,0,0,0,0,0,0
3461,2007-07-04 04:30:00,0,-34.6,135.88,Port Lincoln,SA,AWS,50,270,0,0,0,0,0,0
3462,2007-07-04 04:40:00,0,-34.27,135.73,Cummins,SA,AWS,52,270,0,0,0,0,0,0
3463,2007-07-04 05:55:00,0,-34.75,137.53,Minlaton,SA,AWS,53,280,0,0,0,0,0,0
3464,2007-07-04 06:00:00,0,-35.28,136.94,Stenhouse Bay,SA,AWS,49,270,0,0,0,0,0,0
3465,2007-07-04 07:20:00,0,-35.11,137.74,Edithburgh,SA,AWS,51,280,0,0,0,0,0,0
3466,2007-07-04 07:40:00,0,-32.58,139.55,Yunta,SA,AWS,49,280,0,0,0,0,0,0
3467,2007-07-04 07:50:00,0,-35.57,138.29,Parawa,SA,AWS,51,280,0,0,0,0,0,0
3468,2007-07-04 08:10:00,0,-35.33,138.5,Sellicks Hill,SA,AWS,54,280,0,0,0,0,0,0
3469,2007-07-04 09:00:00,0,-35.76,136.6,Cape Borda,SA,AWS,53,250,0,0,0,0,0,0
3470,2007-07-04 09:05:00,0,-34.73,138.93,Mt Crawford,SA,AWS,51,270,0,0,0,0,0,0
3471,2007-07-04 09:45:00,0,-34.53,138.69,Roseworthy,SA,AWS,51,270,0,0,0,0,0,0
3472,2007-07-04 11:50:00,0,-35.16,138.41,Noarlunga,SA,AWS,51,270,0,0,0,0,0,0
3473,2007-07-04 12:10:00,0,-36.97,139.72,Cape Jaffa,SA,AWS,51,250,0,0,0,0,0,0
3474,2007-07-04 16:20:00,0,-35.38,140.54,Lameroo,SA,AWS,50,260,0,0,0,0,0,0
3475,2007-07-17 01:35:00,0,-35.38,140.54,Lameroo,SA,AWS,51,240,0,0,0,0,0,0
3476,2007-09-19 04:30:00,30,-31.03,137.05,Woomera,SA,AWS,50,250,0,0,0,0,0,0
3477,2007-09-19 05:02:00,30,-36.83,140.53,Naracoorte,SA,AWS,50,290,0,0,0,0,0,0
3478,2007-09-25 15:28:00,90,-29.65,138.06,Marree,SA,AWS,54,230,0,0,0,0,0,0
3479,2007-09-27 03:30:00,30,-34.64,135.69,Port Lincoln AWS,SA,,51,280,0,0,0,0,0,0
3480,2007-09-27 05:01:00,29,-35.97,138.13,Cape Willoughby,SA,Cape Willoughby AWS,58,280,0,0,0,0,0,0
3481,2007-09-27 06:00:00,30,-34.68,138.97,Adelaide,SA,Mt Crawford AWS,52,270,0,0,0,0,0,0
3482,2007-09-27 06:05:00,25,-35.52,138.82,Hindmarsh Island,SA,Hindmarsh Island AWS,49,270,0,0,0,0,0,0
3483,2007-09-27 18:38:00,22,-36.97,139.72,Cape Jaffa,SA,Cape Jaffa AWS,53,280,0,0,0,0,0,0
3484,2007-09-27 20:06:00,24,-36.95,140.0,Robe,SA,Robe AWS,57,260,0,0,0,0,0,0
3485,2007-09-28 02:00:00,30,-37.83,140.78,Mount Gambier,SA,Mount Gambier AWS,49,280,0,0,0,0,0,0
3486,2007-09-28 03:03:00,27,-35.83,138.12,Cape Willoughby,SA,Cape Willougby AWS,50,260,0,0,0,0,0,0
3487,2007-10-27 03:12:00,18,-30.71,134.57,Tarcoola,SA,Tarcoola AWS,57,320,0,0,0,0,0,0
3488,2007-10-27 05:01:00,29,-33.05,137.53,Whyalla,SA,Whyalla AWS,49,340,0,0,0,0,0,0
3489,2007-10-27 05:11:00,19,-35.83,138.12,Cape Willougby,SA,Cape Willoughby AWS,49,280,0,0,0,0,0,0
3490,2007-10-27 05:25:00,35,-35.08,137.75,Edithburgh,SA,Edithburgh AWS,49,360,0,0,0,0,0,0
3491,2007-10-27 06:02:00,28,-35.33,138.5,Sellicks Hill,SA,Sellicks Hill AWS,56,360,0,0,0,0,0,0
3492,2007-10-27 06:12:00,18,-34.97,138.7,Mount Lofty,SA,Mount Lofty AWS,49,360,0,0,0,0,0,0
3493,2007-10-27 07:23:00,37,-32.58,139.55,Yunta,SA,Yunta AWS,58,320,0,0,0,0,0,0
3494,2007-10-27 07:43:00,17,-30.58,138.4,Leigh Creek,SA,,0,0,0,0,0,0,0,0
3495,2007-10-27 08:03:00,27,-31.03,137.05,Woomera,SA,Woomera AWS,58,270,0,0,0,0,0,0
3496,2007-10-27 08:19:00,11,-33.71,138.29,Snowtown,SA,Snowtonw AWS,55,350,0,0,0,0,0,0
3497,2007-10-27 09:22:00,38,-29.65,138.06,Marree,SA,Marree Airport AWS,59,360,0,0,0,0,0,0
3498,2007-10-27 09:57:00,33,-29.01,134.75,Coober Pedy,SA,Coober Pedy AWS,49,270,0,0,0,0,0,0
3499,2007-10-27 11:59:00,31,-27.54,135.44,Oodnadatta,SA,Oodnadatta AWS,52,260,0,0,0,0,0,0
3500,2007-10-27 15:22:00,38,-34.36,135.35,Coles Point,SA,Coles Point AWS,50,290,0,0,0,0,0,0
3501,2007-10-28 01:23:00,7,-35.08,137.73,Edithburgh,SA,Edithburgh AWS,49,320,0,0,0,0,0,0
3502,2007-10-28 03:49:00,11,-35.83,138.13,Cape Willoughby,SA,Cape Willoughby AWS,49,320,0,0,0,0,0,0
3503,2007-10-28 04:06:00,24,-32.84,135.15,Minnipa,SA,Minnipa AWS,51,290,0,0,0,0,0,0
3504,2007-10-28 04:27:00,33,-33.1,135.35,Wudinna,SA,Wudinna AWS,59,290,0,0,0,0,0,0
3505,2007-10-28 05:00:00,30,-35.76,136.6,Cape Borda,SA,Cape Borda AWS,49,320,0,0,0,0,0,0
3506,2007-10-28 07:25:00,35,-35.16,138.51,Adelaide,SA,Noarlunga AWS,50,320,0,0,0,0,0,0
3507,2007-10-28 08:09:00,21,-34.85,138.62,Adelaide,SA,Adelaide Airport AWS,51,290,0,0,0,0,0,0
3508,2007-10-28 08:10:00,20,-36.98,140.73,Naracoorte,SA,Naracoorte AWS,50,270,0,0,0,0,0,0
3509,2007-11-19 19:30:00,30,-36.03,140.58,Keith,SA,Border Chronicle reporter,60,320,0,0,0,0,0,0
3510,2007-11-19 20:43:00,17,-33.7,136.49,Cleve,SA,Cleve AWS,67,240,0,0,0,0,0,0
3511,2007-11-20 05:04:00,26,-30.71,134.57,Tarcoola,SA,Tarcoola AWS,49,340,0,0,0,0,0,0
3512,2007-11-20 11:30:00,30,-31.03,137.05,Woomera,SA,Woomera AWS,49,180,0,0,0,0,0,0
3513,2007-12-06 04:16:00,8,-29.01,134.75,Coober Pedy,SA,AWS,59,260,0,0,0,0,0,0
3520,2007-12-19 04:30:00,30,-35.07,140.84,Pinnaroo,SA,Site inspection and newspaper clippings,65,330,0,0,0,0,0,0
3523,2008-01-26 03:50:00,60,-29.5,137.5,Maree,SA,,54,0,0,0,0,0,0,0
3539,2008-05-14 18:00:00,30,-33.56,139.1,Burra,SA,newspaper report,65,270,0,0,0,0,0,0
3540,2008-05-16 12:36:00,10,-34.64,135.7,Port Lincoln,SA,Bureau AWS,50,220,0,0,0,0,0,0
3541,2008-12-09 06:17:00,13,-31.03,137.05,Woomera,SA,Bureau AWS,55,310,0,0,0,0,0,0
3542,2008-12-09 08:42:00,14,-30.58,138.4,Leigh Creek,SA,Bureau AWS,51,190,0,0,0,0,0,0
4647,2006-01-07 05:20:00,0,-31.62,117.22,Cunderdin,WA,BOM,61,1,0,0,0,0,0,0
4648,2006-01-09 03:21:00,0,-20.3725,118.6317,Port Hedland,WA,BOM,53,30,0,0,0,0,0,0
4649,2006-01-09 11:48:00,0,-20.71,116.77,Karratha,WA,BOM,76,0,0,0,0,0,0,0
4650,2006-01-09 12:31:00,0,-20.76,117.16,Roebourne,WA,BOM,70,33,0,0,0,0,0,0
4651,2006-01-09 17:07:00,0,-20.76,117.16,Roebourne,WA,BOM,67,16,0,0,0,0,0,0
4652,2006-01-09 20:13:00,0,-21.19,115.98,Mardie,WA,BOM,56,221,0,0,0,0,0,0
4653,2006-01-11 18:36:00,0,-15.51,128.15,Wyndham,WA,BOM,53,99,0,0,0,0,0,0
4654,2006-01-18 15:26:00,0,-23.4169,119.7989,Newman,WA,BOM,73,132,0,0,0,0,0,0
4655,2006-01-18 23:03:00,0,-14.09,126.3867,Kalumburru,WA,BOM,53,292,0,0,0,0,0,0
4656,2006-02-16 10:49:00,0,-21.6689,115.0109,Onslow,WA,BOM,48,103,0,0,0,0,0,0
4657,2006-02-17 11:05:00,0,-23.17,117.75,Paraburdoo,WA,BOM,57,226,0,0,0,0,0,0
4658,2006-02-21 05:34:00,0,-31.6669,116.0189,Bulls Brook,WA,BOM,54,110,0,0,0,0,0,0
4659,2006-02-21 06:24:00,0,-31.9275,115.9764,Perth,WA,BOM,54,330,0,0,0,0,0,0
4660,2006-02-27 20:17:00,0,-20.875,115.4056,Barrow Island,WA,BOM,50,126,0,0,0,0,0,0
4661,2006-02-27 21:45:00,0,-20.3725,118.6317,Port Hedland,WA,BOM,48,16,0,0,0,0,0,0
4662,2006-02-28 01:38:00,0,-20.7594,117.1583,Roebourne,WA,BOM,48,2,0,0,0,0,0,0
4663,2006-03-04 12:03:00,0,-18.1814,125.5619,Fitzroy Crossing,WA,BOM,50,110,0,0,0,0,0,0
4664,2006-03-11 06:59:00,0,-31.6669,116.0189,Bullsbrooke,WA,BOM,49,265,0,0,0,0,0,0
4665,2006-03-29 20:43:00,0,-20.3725,118.6317,Port Hedland,WA,BOM,48,70,0,0,0,0,0,0
4666,2006-03-30 03:54:00,0,-20.7594,117.1583,Roebourne,WA,BOM,58,47,0,0,0,0,0,0
4667,2006-03-30 04:56:00,0,-20.7097,116.7742,Karratha,WA,BOM,68,41,0,0,0,0,0,0
4668,2006-03-30 06:59:00,0,-21.1906,115.98,Mardie,WA,BOM,96,79,0,0,0,0,0,0
4669,2006-03-30 12:17:00,0,-21.6689,115.1092,Onslow,WA,BOM,83,166,0,0,0,0,0,0
4670,2006-04-06 14:07:00,0,-20.875,115.4056,Barrow Island,WA,BOM,50,140,0,0,0,0,0,0
4671,2006-04-07 00:22:00,0,-20.875,115.4056,Barrow Island,WA,BOM,56,108,0,0,0,0,0,0
4672,2006-04-07 08:17:00,0,-21.19,115.98,Mardie,WA,BOM,54,51,0,0,0,0,0,0
4673,2006-04-24 23:07:00,0,-34.3728,115.1358,Augusta,WA,BOM,51,276,0,0,0,0,0,0
4674,2006-06-19 09:10:00,0,-34.37,115.13,Augusta,WA,BOM,57,307,0,0,0,0,0,0
4675,2006-06-19 16:28:00,0,-34.37,115.13,Augusta,WA,BOM,50,268,0,0,0,0,0,0
4676,2006-06-27 04:31:00,0,-34.37,115.13,Augusta,WA,BOM,51,289,0,0,0,0,0,0
4677,2006-06-27 04:33:00,0,-33.5372,115.0189,Dunsborough,WA,BOM,54,256,0,0,0,0,0,0
4678,2006-07-09 14:46:00,0,-34.37,115.13,Augusta,WA,BOM,54,263,0,0,0,0,0,0
4679,2006-07-20 14:32:00,0,-32.0069,115.5022,Perth,WA,BOM,53,204,0,0,0,0,0,0
4680,2006-07-20 14:47:00,0,-31.95,115.76,Perth,WA,BOM,48,228,0,0,0,0,0,0
4681,2006-07-23 21:45:00,0,-33.5372,115.0189,Dunsbough,WA,BOM,50,351,0,0,0,0,0,0
4682,2006-07-23 22:41:00,0,-34.37,115.13,Augusta,WA,BOM,50,281,0,0,0,0,0,0
4683,2006-07-24 01:22:00,0,-32.0069,115.5,Perth,WA,BOM,48,360,0,0,0,0,0,0
4684,2006-07-27 05:07:00,0,-33.5372,115.0189,Dunsbrough,WA,BOM,53,233,0,0,0,0,0,0
4685,2006-07-27 05:28:00,0,-32.0069,115.5022,Perth,WA,BOM,49,237,0,0,0,0,0,0
4686,2006-07-27 05:59:00,0,-31.95,115.76,Perth,WA,BOM,48,217,0,0,0,0,0,0
4687,2006-07-27 06:47:00,0,-34.37,115.13,Augusta,WA,BOM,55,242,0,0,0,0,0,0
4688,2006-08-01 07:02:00,0,-34.37,115.13,Augusta,WA,BOM,50,313,0,0,0,0,0,0
4689,2006-08-06 11:09:00,0,-34.37,115.13,Augusta,WA,BOM,48,333,0,0,0,0,0,0
4690,2006-08-07 08:31:00,0,-33.5372,115.0189,Dunsbrough,WA,BOM,57,289,0,0,0,0,0,0
4691,2006-08-07 08:48:00,0,-34.0281,115.1042,Witchcliffe,WA,BOM,49,290,0,0,0,0,0,0
4692,2006-08-07 08:49:00,0,-33.6311,115.34,Busselton,WA,BOM,57,291,0,0,0,0,0,0
4693,2006-08-07 11:31:00,0,-34.37,115.1358,Augusta,WA,BOM,61,293,0,0,0,0,0,0
4694,2006-08-07 12:37:00,0,-32.0069,115.5022,Perth,WA,BOM,53,292,0,0,0,0,0,0
4695,2006-08-14 20:20:00,0,-33.63,115.3389,Busselton,WA,BOM,48,301,0,0,0,0,0,0
4696,2006-08-14 23:24:00,0,-32.0069,115.5022,Perth,WA,BOM,50,267,0,0,0,0,0,0
4697,2006-08-15 03:13:00,0,-34.37,115.13,Augusta,WA,BOM,49,287,0,0,0,0,0,0
4698,2006-08-15 06:59:00,0,-32.2147,121.7547,Norseman,WA,BOM,51,313,0,0,0,0,0,0
4699,2006-08-19 10:02:00,0,-34.37,115.13,Augusta,WA,BOM,69,292,0,0,0,0,0,0
4700,2006-08-21 18:00:00,0,-32.53,115.749,Mandurah,WA,Storm Spotter,0,0,0,0,0,0,0,0
4701,2006-08-21 18:29:00,0,-30.84,128.11,Forrest,WA,BOM,51,220,0,0,0,0,0,0
4702,2006-08-22 00:59:00,0,-32.0069,115.5022,Perth,WA,BOM,50,316,0,0,0,0,0,0
4703,2006-08-22 07:29:00,0,-33.5547,120.6997,Cheadanup,WA,BOM,54,335,0,0,0,0,0,0
4704,2006-09-11 15:42:00,0,-34.37,115.13,Augusta,WA,BOM,54,277,0,0,0,0,0,0
4705,2006-09-11 16:45:00,0,-33.5372,115.0189,Dunsbrough,WA,BOM,49,293,0,0,0,0,0,0
4706,2006-09-20 22:55:00,0,-34.37,115.1358,Augusta,WA,BOM,54,286,0,0,0,0,0,0
4707,2006-09-22 16:18:00,0,-34.37,115.13,Augusta,WA,BOM,48,281,0,0,0,0,0,0
4708,2006-10-03 07:53:00,0,-33.63,115.33,Busselton,WA,BOM,55,268,0,0,0,0,0,0
4709,2006-10-03 09:08:00,0,-34.37,115.13,Augusta,WA,BOM,53,282,0,0,0,0,0,0
4710,2006-10-03 12:07:00,0,-33.5372,115.0189,Dunsbrough,WA,BOM,50,252,0,0,0,0,0,0
4711,2006-10-03 13:14:00,0,-30.84,128.11,Forrest,WA,BOM,57,276,0,0,0,0,0,0
4712,2006-10-03 16:05:00,0,-34.37,115.13,Augusta,WA,BOM,48,267,0,0,0,0,0,0
4713,2006-10-10 20:58:00,0,-34.37,115.13,Augusta,WA,BOM,51,295,0,0,0,0,0,0
4714,2006-10-10 22:02:00,0,-33.63,115.34,Busselton,WA,BOM,48,322,0,0,0,0,0,0
4715,2006-10-11 00:35:00,0,-33.54,115.02,Dunsbrough,WA,BOM,49,252,0,0,0,0,0,0
4716,2006-10-11 05:41:00,0,-33.83,121.89,Esperance,WA,BOM,49,319,0,0,0,0,0,0
4717,2006-10-11 05:54:00,0,-33.5547,120.6997,Cheadanup,WA,BOM,48,295,0,0,0,0,0,0
4718,2006-11-10 08:41:00,0,-30.84,128.11,forrest,WA,Forrest anemometer,69,260,0,0,0,0,0,0
4719,2006-11-21 09:33:00,0,-18.18,125.56,Fitzroy Crossing,WA,,49,0,0,0,0,0,0,0
4720,2006-11-21 11:58:00,0,-17.57,123.82,Curtin RAAF,WA,,49,0,0,0,0,0,0,0
4721,2006-11-28 08:40:00,0,-23.17,117.75,Paraburdoo,WA,,58,0,0,0,0,0,0,0
4722,2006-11-28 08:43:00,0,-21.71,122.23,Telfer,WA,,49,0,0,0,0,0,0,0
4723,2006-11-28 08:44:00,0,-32.01,115.5,Rottnest Island,WA,,49,0,0,0,0,0,0,0
4724,2006-11-28 10:03:00,0,-31.96,115.76,Swanbourne,WA,,48,0,0,0,0,0,0,0
4725,2006-11-30 07:51:00,0,-18.18,125.56,Fitzroy Crossing,WA,,53,0,0,0,0,0,0,0
4726,2006-12-02 08:34:00,0,-23.42,119.8,Newman,WA,,71,0,0,0,0,0,0,0
4727,2006-12-04 03:52:00,0,-15.51,128.15,Wyndham,WA,,59,0,0,0,0,0,0,0
4728,2007-01-26 13:11:00,0,-31.46,115.86,Gingin,WA,,50,0,0,0,0,0,0,0
4729,2007-02-19 10:36:00,0,-15.78,128.71,Kununurra,WA,,57,0,0,0,0,0,0,0
4730,2007-02-21 16:55:00,0,-28.12,117.85,Mount Magnet,WA,,50,45,0,0,0,0,0,0
4731,2007-02-28 14:14:00,0,-34.37,115.13,Cape leeuwin,WA,,55,0,0,0,0,0,0,0
4732,2007-02-28 15:31:00,0,-34.37,115.13,Cape Leeuwin,WA,,55,0,0,0,0,0,0,0
4733,2007-02-28 21:23:00,0,-33.63,115.34,busselton jetty,WA,,49,0,0,0,0,0,0,0
4734,2007-03-04 13:18:00,0,-20.37,118.63,Port hedland airport,WA,,49,0,0,0,0,0,0,0
4735,2007-03-04 15:48:00,0,-20.71,116.77,karratha airport,WA,,55,0,0,0,0,0,0,0
4736,2007-03-04 16:57:00,0,-21.19,115.98,Mardie,WA,,55,0,0,0,0,0,0,0
4737,2007-03-04 17:05:00,0,-20.66,115.58,varanus island,WA,,68,0,0,0,0,0,0,0
4738,2007-03-04 17:30:00,0,-20.88,115.41,barrow island,WA,,51,0,0,0,0,0,0,0
4739,2007-03-05 06:17:00,0,-23.17,117.75,Paraburdoo,WA,,49,0,0,0,0,0,0,0
4740,2007-03-07 09:03:00,0,-20.66,115.58,varanus island,WA,,52,0,0,0,0,0,0,0
4741,2007-03-16 07:39:00,0,-23.17,117.75,paraburdoo airport,WA,,55,0,0,0,0,0,0,0
4742,2007-04-29 05:59:00,0,-34.37,115.13,Cape leeuwin,WA,,54,0,0,0,0,0,0,0
4743,2007-04-29 09:25:00,0,-33.63,115.34,Busselton jetty,WA,,51,0,0,0,0,0,0,0
4744,2007-04-30 07:43:00,0,-32.0,115.5,rottnest island,WA,,50,0,0,0,0,0,0,0
4745,2007-04-30 09:58:00,0,-34.37,115.13,cape leeuwin,WA,,57,0,0,0,0,0,0,0
4746,2007-04-30 11:21:00,0,-33.54,115.02,Cape Naturaliste,WA,,49,0,0,0,0,0,0,0
4747,2007-05-27 12:00:00,0,-33.54,115.02,cape naturaliste,WA,,49,0,0,0,0,0,0,0
4748,2007-06-22 04:31:00,0,-33.54,115.02,cape naturaliste,WA,,55,0,0,0,0,0,0,0
4749,2007-06-22 07:29:00,0,-32.01,115.5,rottnest island,WA,,61,0,0,0,0,0,0,0
4750,2007-06-23 07:13:00,0,-34.37,115.13,Cape leeuwin,WA,,58,0,0,0,0,0,0,0
4751,2007-06-23 07:57:00,0,-33.63,115.34,busselton jetty,WA,,51,0,0,0,0,0,0,0
4752,2007-06-23 08:13:00,0,-33.54,115.02,Cape naturaliste,WA,,50,0,0,0,0,0,0,0
4753,2007-06-27 11:17:00,0,-32.01,115.5,rottnest island,WA,,55,0,0,0,0,0,0,0
4754,2007-06-29 15:00:00,0,-34.37,115.13,cape leeuwin,WA,,53,0,0,0,0,0,0,0
4755,2007-06-29 16:04:00,0,-33.63,115.34,busselton jetty,WA,,51,0,0,0,0,0,0,0
4756,2007-07-01 03:52:00,0,-33.54,115.02,cape naturaliste,WA,,62,0,0,0,0,0,0,0
4757,2007-07-01 03:58:00,0,-32.01,115.5,rottnest island,WA,,56,0,0,0,0,0,0,0
4758,2007-07-01 04:12:00,0,-33.63,115.34,busselton jetty,WA,,61,0,0,0,0,0,0,0
4759,2007-07-01 04:46:00,0,-31.96,115.76,swanbourne,WA,,52,0,0,0,0,0,0,0
4760,2007-07-01 04:46:00,0,-34.25,116.14,manjimup,WA,,51,0,0,0,0,0,0,0
4761,2007-07-01 05:39:00,0,-32.24,115.68,garden island,WA,,51,0,0,0,0,0,0,0
4762,2007-07-01 12:44:00,0,-32.52,115.75,mandurah,WA,,51,0,0,0,0,0,0,0
4763,2007-07-01 22:44:00,0,-34.37,115.13,cape leeuwin,WA,,63,0,0,0,0,0,0,0
4764,2007-07-19 05:07:00,0,-34.37,115.13,cape leeuwin,WA,,54,0,0,0,0,0,0,0
4765,2007-07-19 05:16:00,0,-33.54,115.02,cape naturaliste,WA,,50,0,0,0,0,0,0,0
4766,2007-07-19 06:13:00,0,-32.01,115.5,Rottnest Island,WA,,49,0,0,0,0,0,0,0
4767,2007-07-19 14:23:00,0,-32.52,115.75,Mandurah,WA,,53,0,0,0,0,0,0,0
4768,2007-07-21 03:07:00,0,-32.01,115.5,rottnest island,WA,,49,0,0,0,0,0,0,0
4769,2007-07-21 06:23:00,0,-32.52,115.75,mandurah,WA,,51,0,0,0,0,0,0,0
4770,2007-07-21 21:18:00,0,-34.37,115.13,Cape Leeuwin,WA,,55,0,0,0,0,0,0,0
4771,2007-07-21 22:22:00,0,-33.66,115.32,Busselton,WA,,53,0,0,0,0,0,0,0
4772,2007-07-22 02:25:00,0,-33.54,115.02,cape naturaliste,WA,,50,0,0,0,0,0,0,0
4773,2007-07-23 10:19:00,0,-33.54,115.02,cape naturaliste,WA,,49,0,0,0,0,0,0,0
4774,2007-07-23 10:37:00,0,-33.66,115.32,busselton,WA,,50,0,0,0,0,0,0,0
4775,2007-07-23 10:56:00,0,-32.01,115.5,rottnest island,WA,,57,0,0,0,0,0,0,0
4776,2007-07-23 14:33:00,0,-34.37,115.13,cape leeuwin,WA,,51,0,0,0,0,0,0,0
4777,2007-07-23 17:21:00,0,-32.01,115.5,rottnest island,WA,,59,0,0,0,0,0,0,0
4778,2007-07-28 16:44:00,0,-34.37,115.13,cape leeuwin,WA,,51,0,0,0,0,0,0,0
4779,2007-07-29 21:27:00,0,-34.37,115.13,Cape Leeuwin,WA,,56,0,0,0,0,0,0,0
4780,2007-07-30 02:55:00,0,-33.63,115.34,busselton jetty,WA,,51,0,0,0,0,0,0,0
4781,2007-07-30 03:52:00,0,-32.01,115.5,rottnest island,WA,,55,0,0,0,0,0,0,0
4782,2007-07-30 05:46:00,0,-33.54,115.02,Cape Naturaliste,WA,,52,0,0,0,0,0,0,0
4783,2007-07-30 18:00:00,0,-34.37,115.13,cape leeuwin,WA,,59,0,0,0,0,0,0,0
4784,2007-07-30 21:05:00,0,-31.76,115.73,ocean reef,WA,,51,0,0,0,0,0,0,0
4785,2007-07-31 21:06:00,0,-34.37,115.13,cape leeuwin,WA,,55,0,0,0,0,0,0,0
4786,2007-07-31 23:08:00,0,-33.54,115.02,cape naturaliste,WA,,52,0,0,0,0,0,0,0
4787,2007-08-06 06:57:00,0,-33.69,121.83,esperance aerodrome,WA,,52,0,0,0,0,0,0,0
4788,2007-08-06 07:19:00,0,-32.21,121.75,norseman airport,WA,,61,0,0,0,0,0,0,0
4789,2007-08-09 13:53:00,0,-34.37,115.13,cape leeuwin,WA,,52,0,0,0,0,0,0,0
4790,2007-08-22 12:56:00,0,-34.37,115.13,cape leeuwin,WA,,50,0,0,0,0,0,0,0
4791,2007-08-25 19:59:00,0,-34.37,115.13,cape leeuwin,WA,,66,0,0,0,0,0,0,0
4792,2007-08-25 21:43:00,0,-32.01,115.5,rottnest island,WA,,57,320,0,0,0,0,0,0
4793,2007-08-26 07:24:00,0,-34.37,115.13,cape leeuwin,WA,,66,0,0,0,0,0,0,0
4794,2007-08-29 13:26:00,0,-32.01,115.5,rottnest island,WA,,51,0,0,0,0,0,0,0
4795,2007-09-03 22:53:00,0,-34.37,115.13,cape leeuwin,WA,,54,0,0,0,0,0,0,0
4796,2007-09-04 05:48:00,0,-33.89,119.11,jacup,WA,,49,0,0,0,0,0,0,0
4797,2007-09-12 01:51:00,0,-34.37,115.13,cape leeuwin,WA,,59,0,0,0,0,0,0,0
4798,2007-09-12 05:47:00,0,-32.01,115.5,rottnest island,WA,,51,0,0,0,0,0,0,0
4799,2007-09-12 06:40:00,0,-33.63,115.34,busselton jetty,WA,,53,0,0,0,0,0,0,0
4800,2007-09-12 07:10:00,0,-31.76,115.73,ocean reef,WA,,50,0,0,0,0,0,0,0
4801,2007-09-12 07:10:00,0,-31.96,115.76,swanbourne,WA,,49,0,0,0,0,0,0,0
4802,2007-09-12 07:27:00,0,-33.54,115.02,cape naturaliste,WA,,57,0,0,0,0,0,0,0
4803,2007-09-12 11:09:00,0,-32.21,121.75,norseman,WA,,57,0,0,0,0,0,0,0
4804,2007-09-13 23:40:00,0,-34.37,115.13,cape leeuwin,WA,,51,0,0,0,0,0,0,0
4805,2007-09-14 03:06:00,0,-33.54,115.02,cape naturaliste,WA,,58,0,0,0,0,0,0,0
4806,2007-09-14 03:28:00,0,-33.66,115.32,busselton,WA,,53,0,0,0,0,0,0,0
4807,2007-09-15 04:34:00,0,-34.37,115.13,cape leeuwin,WA,,55,0,0,0,0,0,0,0
4808,2007-09-17 23:23:00,0,-34.37,115.13,cape leeuwin,WA,,54,0,0,0,0,0,0,0
4809,2007-09-23 17:36:00,0,-32.01,115.5,rottnest island,WA,,49,0,0,0,0,0,0,0
4810,2007-10-17 05:11:00,0,-34.37,115.13,cape leeuwin,WA,,50,0,0,0,0,0,0,0
4811,2007-10-17 10:28:00,0,-33.69,121.83,esperance airport,WA,,49,0,0,0,0,0,0,0
4812,2007-10-26 11:48:00,0,-31.76,115.73,ocean reef,WA,,50,0,0,0,0,0,0,0
4813,2007-10-26 13:26:00,0,-34.37,115.13,cape leeuwin,WA,,52,0,0,0,0,0,0,0
4814,2007-10-26 19:38:00,0,-32.01,115.5,rottnest island,WA,,54,0,0,0,0,0,0,0
4815,2007-10-26 21:13:00,0,-33.54,115.02,cape naturaliste,WA,,49,0,0,0,0,0,0,0
4816,2007-10-27 03:03:00,0,-33.69,121.83,esperance airport,WA,,52,0,0,0,0,0,0,0
4817,2007-10-27 03:47:00,0,-33.93,120.13,hopetoun north,WA,,51,0,0,0,0,0,0,0
4818,2007-10-27 04:31:00,0,-33.55,120.7,munglinup west,WA,,51,0,0,0,0,0,0,0
4819,2007-10-27 05:11:00,0,-30.84,128.11,forrest,WA,,52,0,0,0,0,0,0,0
4820,2007-10-27 07:06:00,0,-33.83,121.89,esperance,WA,,50,0,0,0,0,0,0,0
4821,2007-11-02 07:28:00,0,-15.51,128.15,wyndham,WA,,51,0,0,0,0,0,0,0
4822,2007-11-14 07:28:00,0,-15.51,128.15,wyndham,WA,,73,0,0,0,0,0,0,0
4823,2007-11-18 06:06:00,0,-30.84,128.11,forrest,WA,,51,0,0,0,0,0,0,0
4824,2007-11-23 06:27:00,0,-15.78,128.71,kununurra airport,WA,,49,0,0,0,0,0,0,0
4825,2007-11-25 06:30:00,0,-17.09,122.86,Beagle Bay,WA,,54,0,0,0,0,0,0,0
4826,2007-11-30 10:16:00,0,-15.78,128.71,kununurra airport,WA,,51,0,0,0,0,0,0,0
4827,2007-11-30 10:33:00,0,-34.37,115.13,cape leeuwin,WA,,50,0,0,0,0,0,0,0
4828,2008-01-04 13:58:00,0,-20.66,115.58,varanus island,WA,,49,0,0,0,0,0,0,0
4829,2008-01-08 08:57:00,0,-33.1,118.46,lake grace,WA,,49,0,0,0,0,0,0,0
4830,2008-01-08 12:48:00,0,-28.12,117.85,mount magnet aerodrome,WA,,49,0,0,0,0,0,0,0
4831,2008-01-13 09:38:00,0,-16.64,128.45,argyle aerodrome,WA,,61,0,0,0,0,0,0,0
4832,2008-01-21 15:34:00,0,-18.18,125.56,fitzroy crossing,WA,,56,0,0,0,0,0,0,0
4833,2008-01-24 09:45:00,0,-28.88,121.32,leonora aerodrome,WA,,52,0,0,0,0,0,0,0
4834,2008-01-29 11:41:00,0,-30.84,128.11,forrest,WA,,50,0,0,0,0,0,0,0
4835,2008-02-02 06:42:00,0,-23.42,119.8,newman aerodrome,WA,,51,0,0,0,0,0,0,0
4836,2008-02-02 10:23:00,0,-16.64,128.45,argyle aerodrome,WA,,49,0,0,0,0,0,0,0
4837,2008-02-18 20:44:00,0,-21.67,115.11,onslow airport,WA,,49,0,0,0,0,0,0,0
4838,2008-02-19 03:07:00,0,-21.46,115.02,thevenard island,WA,,52,0,0,0,0,0,0,0
4839,2008-02-19 10:15:00,0,-22.24,114.09,learmonth airport,WA,,54,0,0,0,0,0,0,0
4840,2008-02-23 22:26:00,0,-20.66,115.58,varanus island,WA,,53,0,0,0,0,0,0,0
4841,2008-03-04 07:16:00,0,-22.24,114.09,learmonth airport,WA,,58,0,0,0,0,0,0,0
4842,2008-03-08 10:11:00,0,-20.76,117.56,roebourne aerodrome,WA,,88,0,0,0,0,0,0,0
4843,2008-03-09 08:55:00,0,-21.46,115.02,thevenard island,WA,,49,0,0,0,0,0,0,0
4844,2008-03-13 00:30:00,0,-34.37,115.13,cape leeuwin,WA,,49,0,0,0,0,0,0,0
4845,2008-03-23 09:30:00,0,-23.17,117.75,paraburdoo aerodrome,WA,,57,0,0,0,0,0,0,0
4846,2008-03-31 14:43:00,0,-32.01,115.5,rottnest island,WA,,51,0,0,0,0,0,0,0
4847,2008-04-01 17:00:00,0,-32.24,115.68,garden island,WA,,49,0,0,0,0,0,0,0
4848,2008-04-01 17:15:00,0,-32.01,115.5,rottnest island,WA,,51,0,0,0,0,0,0,0
4849,2008-04-10 10:29:00,0,-30.84,128.11,forrest,WA,,60,0,0,0,0,0,0,0
4850,2008-05-30 23:06:00,0,-33.6235,115.3375,Busselton,WA,,55,0,0,0,0,0,0,0
4851,2008-05-31 04:06:00,0,-31.9425,116.0486,Perth,WA,BoM AWS,62,0,0,0,0,0,0,0
5113,2006-01-08 08:30:00,60,-15.74,136.8,Centre Island,NT,AWS Report,53,190,0,0,0,0,0,0
5114,2006-01-09 08:00:00,60,-15.66,130.48,Timber Creek,NT,Damage Report,50,0,0,0,0,0,0,0
5115,2006-01-11 14:30:00,60,-16.4,131.01,Victoria River Downs,NT,AWS Report,51,50,0,0,0,0,0,0
5116,2006-01-18 02:00:00,60,-12.4,130.6,Charles Point,NT,AWS Report,53,310,0,0,0,0,0,0
5117,2006-02-01 02:30:00,60,-12.57,131.08,Humpty Doo,NT,AWS Report,52,270,0,0,0,0,0,0
5118,2006-02-04 08:00:00,60,-23.29,129.39,Kintore,NT,AWS Report,52,40,0,0,0,0,0,0
5119,2006-04-05 06:00:00,180,-14.48,132.26,Katherine,NT,Damage Report,50,0,0,0,0,0,0,0
5120,2006-04-25 13:00:00,60,-12.4,130.6,Charles Point,NT,AWS Report,49,0,0,0,0,0,0,0
5121,2006-10-31 04:30:00,60,-25.25,131.0,Yulara,NT,Estimate from control tower,50,340,0,0,0,0,0,0
5122,2006-11-01 05:00:00,60,-12.57,131.08,Humpty Doo,NT,"Radar, AWS Report",50,0,0,0,0,0,0,0
5123,2006-11-09 08:30:00,90,-12.58,131.31,Middle Point,NT,Radar,50,0,0,0,0,0,0,0
5124,2006-11-10 09:00:00,90,-12.58,131.31,Middle Point,NT,Radar,50,0,0,0,0,0,0,0
5125,2006-11-16 23:30:00,60,-12.4,130.6,Charles Point,NT,AWS Report,58,30,0,0,0,0,0,0
5126,2006-11-18 04:00:00,60,-12.6,131.1,Noonamah,NT,AWS Report,49,350,0,0,0,0,0,0
5127,2006-12-10 06:00:00,60,-15.63,131.63,Delamere,NT,AWS Report,49,130,0,0,0,0,0,0
5128,2006-12-13 10:00:00,120,-12.46,130.96,Darwin,NT,"Radar, AWS Report",50,0,0,0,0,0,0,0
5129,2007-01-20 18:00:00,60,-15.74,136.8,Centre Island,NT,AWS Report,54,200,0,0,0,0,0,0
5130,2007-02-09 08:30:00,60,-13.13,131.37,Adelaide River,NT,Damage assessment,75,0,0,0,0,0,0,0
5131,2007-02-09 09:00:00,60,-15.74,136.8,Centre Island,NT,AWS Report,63,70,0,0,0,0,0,0
5132,2007-02-17 07:00:00,60,-12.6,131.1,Noonamah,NT,AWS Report,69,50,0,0,0,0,0,0
5133,2007-02-18 04:30:00,60,-12.46,130.96,Darwin,NT,"Damage report, Wind estimate from storm spotter",60,0,0,0,0,0,0,0
5134,2007-02-20 11:00:00,60,-12.7,130.6,Crab Claw Island,NT,Damage Report,60,0,0,0,0,0,0,0
5135,2007-02-21 10:00:00,60,-12.46,130.96,Darwin,NT,AWS Report,52,60,0,0,0,0,0,0
5136,2007-02-23 10:00:00,60,-12.46,130.96,Darwin,NT,"Radar, AWS Report",50,0,0,0,0,0,0,0
5137,2007-03-01 09:00:00,150,-13.56,132.27,Mary River Ranger Station,NT,Damage Report,130,0,0,0,0,0,0,0
5138,2007-03-01 09:00:00,180,-12.3,132.0,Wildman River,NT,Damage Report,60,0,0,0,0,0,0,0
5139,2007-03-02 16:00:00,60,-12.46,130.96,Darwin,NT,Radar. AWS Report,60,360,0,0,0,0,0,0
5140,2007-10-12 08:30:00,60,-13.13,131.37,Adelaide River,NT,Storm Spotter Report,50,0,0,0,0,0,0,0
5141,2007-10-12 12:30:00,60,-12.9,131.65,Annaburroo,NT,"Storm Spotter, Radar",50,0,0,0,0,0,0,0
5142,2007-10-31 09:30:00,60,-24.29,131.55,Watarrka,NT,"Damage Report, Radar",70,0,0,0,0,0,0,0
5143,2007-11-14 04:30:00,60,-16.1,136.3,Borroloola,NT,AWS Report,50,230,0,0,0,0,0,0
5144,2007-11-22 06:30:00,60,-16.4,131.01,Victoria River Downs,NT,Damage Report,60,0,0,0,0,0,0,0
5145,2007-11-27 05:00:00,60,-12.46,131.05,Howard Springs,NT,Damage Report,50,0,0,0,0,0,0,0
5146,2007-11-28 04:30:00,60,-12.46,131.05,Howard Springs,NT,Damage Report,50,0,0,0,0,0,0,0
5147,2007-12-06 16:30:00,60,-12.6,131.1,Noonamah,NT,AWS Report,50,60,0,0,0,0,0,0
5148,2007-12-07 10:30:00,60,-25.25,131.0,Yulara,NT,AWS Report,50,230,0,0,0,0,0,0
5149,2008-01-04 12:00:00,60,-14.48,132.26,Katherine,NT,Storm Spotter Report,50,0,0,0,0,0,0,0
5150,2008-01-14 09:30:00,60,-16.1,136.3,Borroloola,NT,AWS Report,51,170,0,0,0,0,0,0
5151,2008-01-15 08:00:00,60,-15.74,136.8,Centre Island,NT,AWS Report,53,220,0,0,0,0,0,0
5152,2008-01-18 09:30:00,60,-15.63,131.63,Delamere,NT,"AWS Report, Damage Report",49,170,0,0,0,0,0,0
5153,2008-01-20 08:30:00,60,-15.8,136.65,McArthur River Mine,NT,AWS Report,60,0,0,0,0,0,0,0
5154,2008-03-22 09:30:00,60,-12.46,130.96,Darwin,NT,Radar,50,90,0,0,0,0,0,0
5155,2009-04-03 07:29:00,0,0.0,0.0,Kanchoban,NSW,Bureau AWS,57,0,0,0,0,0,0,0
5157,2008-06-25 03:00:00,112,-35.2552,138.8936,Strathalbyn,SA,,49,310,38,310,0,0,0,0
5158,2008-06-25 03:35:00,85,-35.5172,138.8698,Hindmarsh Island,SA,,53,320,37,320,0,0,0,0
5159,2008-06-30 20:23:00,10,-34.7189,138.7357,ONE TREE HILL,SA,Mt Crawford AWS,49,260,30,260,0,0,0,0
5161,2008-06-29 20:11:00,10,-35.2734,136.9541,STENHOUSE BAY,SA,Stenhouse Bay AWS,49,260,0,0,0,0,0,0
5162,2008-07-13 11:01:00,0,-35.0841,137.7446,EDITHBURGH,SA,,49,340,32,340,0,0,0,0
5163,2008-07-12 01:00:00,2310,-35.8416,138.1347,CAPE WILLOUGHBY,SA,,64,360,52,360,0,0,0,0
5164,2008-07-13 09:00:00,180,-35.7457,136.5873,CAPE BORDA,SA,,50,345,35,350,0,0,0,0
5165,2008-07-29 01:40:00,10,-33.0419,135.4405,WUDINNA AERODROME,SA,Wudinna AWS,0,0,0,0,0,0,0,0
5166,2008-08-01 01:48:00,1,-34.7088,138.621,EDINBURGH,SA,,49,230,34,220,0,0,0,0
5168,2008-10-03 04:53:00,10,-28.1087,140.1919,MOOMBA,SA,,49,330,0,0,0,0,0,0
5171,2008-11-06 06:30:00,0,-28.3782,134.7267,MOUNT BARRY,SA,Tony Williams,49,360,0,0,0,0,0,0
5172,2008-11-07 04:30:00,10,-37.8241,140.7798,MOUNT GAMBIER,SA,,50,320,0,0,0,0,0,0
5173,2008-11-27 03:25:00,15,-29.6477,138.0649,MARREE,SA,Marree AWS,69,230,0,0,0,0,0,0
5176,2008-09-21 23:30:00,10,-29.0388,134.7216,COOBER PEDY AERODROME,SA,Coober Pedy AWS,0,0,34,240,0,0,0,0
5178,2008-11-18 07:41:00,20,-27.5616,135.442,OODNADATTA AERODROME,SA,Oodnadatta AWS,53,230,0,0,0,0,0,0
5179,2008-11-12 10:36:00,10,-30.7081,134.5701,TARCOOLA,SA,,49,220,0,0,0,0,0,0
5181,2008-11-12 13:53:00,10,-33.0594,137.5154,WHYALLA AIRPORT,SA,,49,200,0,0,0,0,0,0
5182,2008-11-27 06:16:00,10,-29.0388,134.7216,COOBER PEDY AERODROME,SA,Coober Pedy AWS,51,290,0,0,0,0,0,0
5183,2008-11-27 06:02:00,10,-31.1651,136.8134,WOOMERA,SA,Woomera AWS,50,220,0,0,0,0,0,0
5184,2008-11-27 09:01:00,19,-30.5924,138.4003,LEIGH CREEK,SA,Leigh Creek AWS,50,220,0,0,0,0,0,0
5185,2008-11-06 08:30:00,15,-32.5085,137.718,PORT AUGUSTA AERODROME,SA,Media reports,49,0,0,0,0,0,0,0
5186,2008-08-01 03:59:00,1,-35.3289,140.5172,LAMEROO,SA,Lameroo AWS,49,260,0,0,0,0,0,0
5187,2008-06-30 14:40:00,10,-36.9554,139.7078,CAPE JAFFA,SA,Cape Jaffa AWS,49,290,0,0,0,0,0,0
5188,2008-06-10 11:19:00,49,-35.2552,138.8936,STRATHALBYN,SA,Strathalbyn AWS,49,310,36,310,0,0,0,0
5189,2008-06-12 10:45:00,0,-37.863,140.7377,MOORAK,SA,Diana McDonald,0,0,0,0,0,0,0,0
5191,2008-04-01 19:47:00,0,-35.0841,137.7446,EDITHBURGH,SA,Edithburgh AWS,55,330,0,0,0,0,0,0
5192,2008-04-01 20:54:00,0,-35.2266,138.6862,KUITPO,SA,Kuitpo AWS,49,330,0,0,0,0,0,0
5193,2008-04-01 20:55:00,0,-34.713,138.9528,MOUNT CRAWFORD,SA,Mount Crawford AWS,53,330,0,0,0,0,0,0
5194,2008-04-01 21:15:00,0,-35.4967,138.8793,HINDMARSH ISLAND,SA,Hindmarsh Island AWS,57,310,0,0,0,0,0,0
5195,2008-04-01 21:19:00,0,-35.2552,138.8936,STRATHALBYN,SA,Strathalbyn AWS,51,330,0,0,0,0,0,0
5196,2008-04-01 21:47:00,0,-36.9554,139.7078,CAPE JAFFA,SA,Cape Jaffa AWS,57,360,0,0,0,0,0,0
5197,2008-04-01 21:57:00,0,-37.1643,139.7568,ROBE,SA,Robe AWS,58,360,0,0,0,0,0,0
5198,2008-04-01 22:09:00,0,-35.8416,138.1347,CAPE WILLOUGHBY,SA,Cape Willoughby AWS,74,330,0,0,0,0,0,0
5199,2008-04-01 22:53:00,0,-36.6019,140.4922,PADTHAWAY,SA,Padthaway AWS,49,330,0,0,0,0,0,0
5200,2008-04-01 23:13:00,0,-36.9801,140.7288,NARACOORTE AERODROME,SA,Naracoorte AWS,55,360,0,0,0,0,0,0
5201,2008-04-02 05:31:00,0,-35.7133,137.5231,KINGSCOTE AERODROME,SA,Kingscote AWS and Islander Newspaper,50,330,0,0,0,0,0,0
5202,2008-04-02 05:45:00,0,-35.0841,137.7446,EDITHBURGH,SA,Edithburgh AWS,49,270,0,0,0,0,0,0
5203,2008-04-02 06:17:00,0,-34.771,137.5955,MINLATON,SA,Minlaton AWS,49,250,0,0,0,0,0,0
5204,2008-04-02 07:11:00,0,-35.2755,136.9387,STENHOUSE BAY,SA,Stenhouse Bay AWS,49,250,0,0,0,0,0,0
5205,2008-04-02 07:53:00,0,-34.944,138.531,ADELAIDE AIRPORT,SA,Adelaide Airport AWS and observer,50,250,0,0,0,0,0,0
5206,2007-12-21 04:57:00,15,-29.0388,134.7216,COOBER PEDY AERODROME,SA,Coober Pedy AWS,62,250,0,0,0,0,0,0
5207,2007-12-20 09:15:00,30,-27.5616,135.442,OODNADATTA AERODROME,SA,Oodnadatta AWS,51,250,0,0,0,0,0,0
5208,2007-12-06 12:12:00,12,-29.6477,138.0649,MARREE,SA,Marree AWS,52,270,0,0,0,0,0,0
5209,2007-12-06 07:35:00,10,-36.0978,140.3546,KEITH,SA,Keith AWS,50,300,0,0,0,0,0,0
5210,2007-12-06 07:02:00,6,-34.5353,138.7458,ROSEWORTHY,SA,Roseworthy AWS,56,340,0,0,0,0,0,0
5211,2007-12-06 06:41:00,14,-26.29,132.13,Ernabella,SA,Ernabella  AWS,50,230,0,0,0,0,0,0
5212,2007-12-06 05:45:00,14,-33.0594,137.5154,WHYALLA AIRPORT,SA,Whyalla  AWS,50,330,0,0,0,0,0,0
5213,2007-12-06 04:21:00,10,-34.6051,135.8775,PORT LINCOLN AIRPORT,SA,Port Lincoln AWS,51,300,0,0,0,0,0,0
5214,2007-12-06 07:48:00,5,-29.0388,134.7216,COOBER PEDY AERODROME,SA,Coober Pedy AWS,56,270,0,0,0,0,0,0
5215,2007-12-06 08:54:00,7,-29.0388,134.7216,COOBER PEDY AERODROME,SA,Coober Pedy AWS,53,300,0,0,0,0,0,0
5216,2009-01-28 07:40:00,10,-33.7518,138.8409,HANSON,SA,,0,0,0,0,0,0,0,0
5217,2009-01-28 09:20:00,10,-32.3463,138.0415,QUORN,SA,,0,0,0,0,0,0,0,0
5218,2009-01-28 11:40:00,10,-34.3522,139.6127,BLANCHETOWN,SA,,0,0,0,0,0,0,0,0
5219,2009-03-02 07:36:00,3,-30.4557,136.9021,OLYMPIC DAM,SA,Olympic Dam AWS,51,330,0,0,0,0,0,0
5220,2009-03-11 07:46:00,10,-29.0388,134.7216,COOBER PEDY AERODROME,SA,Coober Pedy AWS,52,290,0,0,0,0,0,0
5221,2008-10-21 06:42:00,0,-29.1151,153.4345,EVANS HEAD,NSW,Bureau AWS,51,0,0,0,0,0,0,0
5222,2008-10-22 05:04:00,0,-29.1151,153.4345,EVANS HEAD,NSW,Bureau AWS,53,0,0,0,0,0,0,0
5223,2008-10-31 06:07:00,0,-30.3317,149.7678,NARRABRI,NSW,Bureau AWS,60,0,0,0,0,0,0,0
5224,2008-11-14 07:15:00,0,-32.0317,147.9679,TRANGIE,NSW,Bureau AWS,49,0,0,0,0,0,0,0
5225,2008-11-14 07:15:00,0,-33.9317,151.1929,MASCOT,NSW,Bureau AWS,50,0,0,0,0,0,0,0
5226,2008-11-19 06:48:00,0,-31.5652,143.368,WILCANNIA,NSW,Bureau AWS,48,0,0,0,0,0,0,0
5227,2008-11-20 02:35:00,0,-30.3317,149.7678,NARRABRI,NSW,Bureau AWS,56,0,0,0,0,0,0,0
5228,2008-11-27 13:08:00,0,-29.4651,149.8345,MOREE,NSW,Bureau AWS,66,0,0,0,0,0,0,0
5229,2008-11-27 06:30:00,0,0.0,0.0,Moree,NSW,Spotter,0,0,0,0,0,0,0,0
5230,2008-11-27 09:17:00,0,-33.1317,148.1679,PARKES,NSW,Bureau AWS,0,0,49,0,0,0,0,0
5231,2008-11-27 09:18:00,0,-29.4152,142.0346,TIBOOBURRA,NSW,Bureau AWS,0,0,48,0,0,0,0,0
5232,2008-11-28 01:25:00,0,-34.2818,146.0346,GRIFFITH,NSW,Bureau AWS,49,0,0,0,0,0,0,0
5233,2008-11-28 03:22:00,0,-33.3817,148.0012,FORBES,NSW,Bureau AWS,48,0,0,0,0,0,0,0
5234,2008-11-28 03:33:00,0,-33.1317,148.1679,PARKES,NSW,Bureau AWS,50,0,35,0,0,0,0,0
5235,2008-12-03 07:30:00,0,-29.0817,153.3345,WOODBURN,NSW,spotter,0,0,0,0,0,0,0,0
5236,2008-12-10 06:55:00,0,-29.8317,152.8845,COUTTS CROSSING,NSW,Spotter,50,0,0,0,0,0,0,0
5237,2008-12-10 09:52:00,0,-29.1151,153.4345,EVANS HEAD,NSW,Bureau AWS,48,0,0,0,0,0,0,0
5238,2008-12-10 10:08:00,0,-29.1151,153.4345,EVANS HEAD,NSW,Bureau AWS,55,0,35,0,0,0,0,0
5239,2008-12-12 06:00:00,0,-29.9484,146.8679,BREWARRINA,NSW,Synop,0,0,0,0,0,0,0,0
5240,2008-12-18 05:53:00,0,-34.5484,150.3679,MOSS VALE,NSW,Bureau AWS,49,0,0,0,0,0,0,0
5241,2008-12-22 04:54:00,0,-30.0818,145.9512,BOURKE,NSW,Bureau AWS,67,0,0,0,0,0,0,0
5242,2008-12-22 10:50:00,0,-34.2818,146.0346,GRIFFITH,NSW,Bureau AWS,51,0,0,0,0,0,0,0
5243,2008-12-23 04:44:00,0,-30.0317,148.1012,WALGETT,NSW,Bureau AWS,49,0,0,0,0,0,0,0
5244,2008-12-23 07:43:00,0,-33.4167,149.5807,BATHURST,NSW,Bureau AWS,56,0,0,0,0,0,0,0
5245,2008-12-29 05:20:00,0,-28.5984,150.3511,BOGGABILLA,NSW,Spotter,55,0,0,0,0,0,0,0
5246,2009-01-01 12:55:00,0,-28.8317,153.5345,BALLINA,NSW,Bureau AWS,49,0,0,0,0,0,0,0
5247,2009-01-10 07:04:00,0,-32.0317,147.9679,TRANGIE,NSW,Bureau AWS,48,0,0,0,0,0,0,0
5248,2009-01-20 04:28:00,0,0.0,0.0,Canberra airport,NSW,Bureau AWS,57,0,0,0,0,0,0,0
5249,2009-01-20 05:47:00,0,-35.1152,147.3679,WAGGA WAGGA,NSW,Bureau AWS,62,0,0,0,0,0,0,0
5250,2009-01-22 05:27:00,0,-36.0652,146.9013,ALBURY,NSW,Bureau AWS,53,0,0,0,0,0,0,0
5251,2009-01-22 06:29:00,0,-35.1152,147.3679,WAGGA WAGGA,NSW,Bureau AWS,51,0,0,0,0,0,0,0
5252,2009-01-22 06:33:00,0,-36.1985,148.1346,KHANCOBAN,NSW,Bureau AWS,54,0,0,0,0,0,0,0
5253,2009-01-22 09:00:00,0,-36.1985,148.1346,"Canberra, (Dunlop)",NSW,Spotter,0,0,0,0,0,0,0,0
5254,2009-01-22 09:00:00,0,-36.1985,148.1346,"Canberra, (Palmerston)",NSW,Spotter,0,0,0,0,0,0,0,0
5255,2009-01-23 08:21:00,0,0.0,0.0,Canberra,NSW,Bureau AWS,51,0,0,0,0,0,0,0
5256,2009-01-23 09:50:00,0,-31.4985,145.8346,COBAR,NSW,Bureau AWS,51,0,0,0,0,0,0,0
5257,2009-01-24 07:00:00,0,-32.5651,151.1678,SINGLETON,NSW,SES,0,0,0,0,0,0,0,0
5258,2009-02-02 04:53:00,0,-36.9151,149.2346,BOMBALA,NSW,Bureau AWS,53,0,0,0,0,0,0,0
5259,2009-02-03 08:15:00,0,-34.3151,148.3012,YOUNG,NSW,SES,0,0,0,0,0,0,0,0
5260,2009-02-10 04:10:00,0,-34.3151,148.3012,Narrabri West,NSW,Bureau AWS,55,0,0,0,0,0,0,0
5261,2009-02-10 05:47:00,0,-30.9817,150.2511,GUNNEDAH,NSW,Bureau AWS,67,0,0,0,0,0,0,0
5262,2009-02-23 06:00:00,0,-33.2985,146.3679,LAKE CARGELLIGO,NSW,Co-op observer,0,0,0,0,0,0,0,0
5263,2009-04-03 05:34:00,0,-36.0652,146.9013,ALBURY,NSW,Bureau AWS,53,0,0,0,0,0,0,0
5264,2009-04-15 01:45:00,1,-36.9554,139.7078,CAPE JAFFA,SA,Cape Jaffa AWS,49,305,0,0,0,0,0,0
5265,2009-04-15 02:50:00,1,-36.9801,140.7288,NARACOORTE AERODROME,SA,Naracoorte AWS,52,322,0,0,0,0,0,0
5266,2009-04-15 02:30:00,90,-36.9554,139.7078,CAPE JAFFA,SA,Cape Jaffa AWS,53,265,37,270,0,0,0,0
5267,2008-06-15 10:00:00,0,-34.9781,116.7331,WALPOLE,WA,,53,250,32,250,0,0,0,0
5268,2008-07-10 12:50:00,0,-34.375,115.1364,CAPE LEEUWIN LIGHTHOUSE,WA,,53,330,42,290,0,0,0,0
5269,2008-07-10 22:43:00,0,-34.9,116.7,WALPOLE,WA,,61,250,40,260,0,0,0,0
5270,2008-07-10 00:55:00,0,-34.9442,117.8072,ALBANY AERODROME,WA,,59,260,29,260,0,0,0,0
5271,2008-07-11 07:13:00,0,-33.6828,121.8242,ESPERANCE AERODROME,WA,,52,300,35,280,0,0,0,0
5272,2008-07-18 12:03:00,0,-32.008,115.5,ROTTNEST ISLAND,WA,,65,210,40,230,0,0,0,0
5273,2008-07-18 10:01:00,0,-33.5381,115.0186,CAPE NATURALISTE LIGHTHOUSE,WA,,64,210,35,210,0,0,0,0
5274,2008-07-18 16:45:00,0,-33.83,121.89,Esperance,WA,,53,190,31,190,0,0,0,0
5275,2008-07-18 06:06:00,0,-28.8,114.7,Geraldton,WA,,51,270,29,310,0,0,0,0
5276,2008-07-30 08:44:00,0,-33.5381,115.0186,CAPE NATURALISTE LIGHTHOUSE,WA,,49,260,31,260,0,0,0,0
5277,2008-09-21 02:43:00,0,-32.0053,115.6144,ROTTNEST ISLAND,WA,,63,180,0,0,0,0,0,0
5278,2008-09-30 06:17:00,0,-30.8508,128.0997,FORREST,WA,,56,330,39,330,0,0,0,0
5279,2008-10-21 07:54:00,0,-31.6228,117.2164,CUNDERDIN AERODROME,WA,,50,350,22,40,0,0,0,0
5280,2008-10-22 07:37:00,0,-31.6228,117.2164,CUNDERDIN AERODROME,WA,,52,250,19,270,0,0,0,0
5281,2008-10-24 12:57:00,0,-32.0053,115.6144,ROTTNEST ISLAND,WA,,56,280,30,320,0,0,0,0
5282,2008-10-24 08:45:00,0,-30.7761,121.4578,KALGOORLIE AERODROME,WA,,47,280,15,270,0,0,0,0
5283,2008-10-28 03:03:00,0,-34.375,115.1364,CAPE LEEUWIN LIGHTHOUSE,WA,,55,130,38,130,0,0,0,0
5284,2008-10-28 00:19:00,0,-33.9492,120.1242,HOPETOUN,WA,,52,80,31,80,0,0,0,0
5285,2008-11-12 07:18:00,0,-26.13,126.58,WARBURTON AIRFIELD,WA,,50,320,20,250,0,0,0,0
5286,2008-11-26 03:52:00,0,-32.2147,121.7547,NORSEMAN AERODROME,WA,,50,240,33,230,0,0,0,0
5287,2008-11-26 07:16:00,0,-15.5053,128.1519,WYNDHAM AERODROME,WA,,50,200,24,200,0,0,0,0
5288,2008-11-29 08:44:00,0,-18.1786,125.5611,FITZROY CROSSING AERODROME,WA,,50,290,27,300,0,0,0,0
5289,2008-12-03 06:30:00,0,-28.6233,122.4011,LAVERTON,WA,,37,330,21,330,0,0,0,0
5290,2008-12-08 10:50:00,0,-31.6169,128.5919,EUCLA,WA,,50,330,18,330,0,0,0,0
5291,2008-12-11 10:42:00,0,-25.0306,128.3,GILES METEOROLOGICAL STATION,WA,,51,340,15,250,0,0,0,0
5292,2008-12-20 08:43:00,0,-33.55,120.7,Munglinup West,WA,,49,290,0,0,0,0,0,0
5293,2008-12-21 00:00:00,0,-34.4461,116.0356,PEMBERTON,WA,,0,0,0,0,0,0,0,0
5294,2008-12-23 00:22:00,0,-17.9508,122.2336,BROOME AIRPORT,WA,,49,100,30,100,0,0,0,0
5295,2008-12-23 07:33:00,0,-30.7761,121.4578,KALGOORLIE AERODROME,WA,,34,280,19,330,0,0,0,0
5296,2008-12-26 05:45:00,0,-27.9203,120.6967,LEINSTER,WA,,27,40,17,50,0,0,0,0
5297,2008-12-30 00:00:00,0,-28.7942,114.7011,GERALDTON AERODROME,WA,,0,0,0,0,0,0,0,0
5298,2009-01-07 08:13:00,0,-15.5053,128.1519,WYNDHAM AERODROME,WA,,80,240,22,200,0,0,0,0
5299,2009-01-12 09:06:00,0,-33.1133,118.8339,NEWDEGATE AGRICULTURAL RESEARCH STATION,WA,,49,200,20,180,0,0,0,0
5300,2009-01-23 08:09:00,0,-23.4169,119.7992,Newman Aerodrome,WA,,52,130,15,10,0,0,0,0
5301,2009-01-26 05:11:00,0,-33.55,120.7,MUNGLINUP WEST,WA,,51,290,27,10,0,0,0,0
5302,2009-01-26 12:27:00,0,-28.615,122.4228,LAVERTON AERODROME,WA,,51,305,18,100,0,0,0,0
5303,2009-01-31 05:54:00,0,-31.4647,115.8644,GINGIN AIRFIELD,WA,,51,227,19,240,0,0,0,0
5304,2009-02-04 14:59:00,0,-22.2317,114.0872,LEARMONTH AERODROME,WA,,52,97,25,100,0,0,0,0
5305,2009-02-05 08:46:00,0,-28.12,117.84,Mount Magnet Aerodrome,WA,,67,294,33,310,0,0,0,0
5306,2009-02-05 15:01:00,0,-22.2317,114.0872,LEARMONTH AERODROME,WA,,52,99,16,150,0,0,0,0
5307,2009-02-16 00:25:00,0,-21.4567,114.9886,THEVENARD ISLAND,WA,,50,50,38,50,0,0,0,0
5308,2009-02-25 00:25:00,0,-28.615,122.4228,Laverton Aerodrome,WA,,49,300,22,240,0,0,0,0
5309,2009-02-26 10:47:00,0,-20.3736,118.6297,Port Hedland,WA,,56,172,28,170,0,0,0,0
5310,2009-02-28 10:20:00,0,-31.6669,116.0189,Pearce RAAF,NSW,,27,70,18,70,0,0,0,0
5311,2009-03-03 05:51:00,0,-15.5097,128.1503,Wyndham Aerodrome,WA,,56,119,16,120,0,0,0,0
5312,2009-05-21 03:32:00,0,-32.0061,115.5369,ROTTNEST ISLAND AERODROME,WA,,62,340,42,340,0,0,0,0
5313,2009-05-21 04:31:00,0,-31.9328,115.9697,PERTH AIRPORT,WA,,58,320,27,320,0,0,0,0
5314,2009-06-10 08:20:00,0,-34.375,115.1364,CAPE LEEUWIN LIGHTHOUSE,WA,,49,280,31,320,0,0,0,0
5315,2009-06-19 00:00:00,0,-33.5381,115.0186,CAPE NATURALISTE LIGHTHOUSE,WA,,62,220,42,250,0,0,0,0
5316,2009-06-19 04:58:00,0,-31.9425,116.0486,Gooseberry Hill,WA,,53,240,33,250,0,0,0,0
5318,2009-06-23 07:37:00,0,-33.5381,115.0186,CAPE NATURALISTE LIGHTHOUSE,WA,,53,20,37,20,0,0,0,0
5319,2009-06-23 08:11:00,0,-32.0061,115.5369,ROTTNEST ISLAND AERODROME,WA,,52,360,37,360,0,0,0,0
5320,2009-06-29 07:05:00,0,-32.0997,115.8761,JANDAKOT AIRPORT,WA,,49,257,28,280,0,0,0,0
5321,2009-06-28 23:23:00,0,-32.0086,116.1353,Bickley,WA,,59,300,26,300,0,0,0,0
5322,2009-06-29 05:47:00,0,-33.5381,115.0186,CAPE NATURALISTE LIGHTHOUSE,WA,,67,250,49,280,0,0,0,0
5323,2008-12-18 04:20:00,10,-36.55,146.72,Mytleford,VIC,,0,0,0,0,0,0,0,0
5324,2008-12-18 03:20:00,30,-36.0943,145.436,NUMURKAH,VIC,,0,0,0,0,0,0,0,0
5325,2009-01-22 01:30:00,0,-37.65,145.52,Healsville,VIC,,0,0,0,0,0,0,0,0
5326,2009-01-22 02:00:00,0,-36.5887,145.0125,RUSHWORTH,VIC,,0,0,0,0,660,0,0,0
5327,2009-01-22 03:00:00,0,-36.3818,145.4024,SHEPPARTON,VIC,,56,0,0,0,660,0,0,0
5328,2009-01-22 03:30:00,0,-37.0561,146.0867,MANSFIELD,VIC,,0,0,0,0,0,0,0,0
5329,2009-01-22 04:00:00,0,-36.55,146.72,Mytleford,VIC,,0,0,0,0,0,0,0,0
5330,2009-01-22 04:00:00,0,-36.727,146.9619,BRIGHT,VIC,,0,0,0,0,0,0,0,0
5331,2009-01-22 00:00:00,0,-38.8105,146.0394,WARATAH BAY,VIC,,0,0,0,0,0,0,0,0
5332,2009-03-14 10:00:00,0,-37.7708,145.0437,IVANHOE,VIC,,54,0,0,0,0,0,0,0
5333,2009-06-30 05:00:00,0,-36.7128,142.2014,HORSHAM,VIC,,54,0,0,0,0,0,0,0
5334,2009-07-01 04:50:00,2,-38.2964,143.2928,Stonyford,VIC,David Cadby,54,0,0,0,0,0,0,0
5336,2009-08-12 06:00:00,0,-27.5401,153.0677,MOUNT GRAVATT,QLD,,0,0,0,0,0,0,0,0
5337,2009-08-12 07:00:00,0,-27.0667,152.9667,CABOOLTURE,QLD,,0,0,0,0,0,0,0,0
5338,2009-10-13 07:21:00,0,-27.03,153.47,Cape Moreton,QLD,,51,0,0,0,0,0,0,0
5339,2009-10-13 07:12:00,0,-27.05,153.27,Spitfire Channel,QLD,,51,0,0,0,0,0,0,0
5340,2009-10-13 06:16:00,0,-27.48,153.04,Brisbane City,QLD,,50,0,0,0,0,0,0,0
5341,2009-10-13 05:00:00,0,-27.4679,153.0483,NEW FARM,QLD,,0,0,0,0,0,0,0,0
5342,2009-10-13 05:00:00,0,-27.4896,153.0552,COORPAROO,QLD,,0,0,0,0,0,0,0,0
5343,2009-10-13 07:00:00,0,-26.8509,152.958,BEERWAH,QLD,Sara Wessling,0,0,0,0,0,0,0,0
5344,2009-10-25 05:41:00,0,-25.8985,139.3515,BIRDSVILLE,QLD,,49,0,0,0,0,0,0,0
5345,2009-10-31 04:42:00,0,-18.76,138.71,Century Mine,QLD,,50,70,37,70,0,0,0,0
5346,2009-03-16 05:00:00,0,-27.7465,153.0302,MUNRUBEN,QLD,,0,0,0,0,0,0,0,0
5347,2009-02-20 05:00:00,0,-27.9401,153.2427,GUANABA,QLD,,0,0,0,0,0,0,0,0
5348,2009-01-01 00:00:00,0,-27.5592,151.9536,TOOWOOMBA,QLD,,0,0,0,0,0,0,0,0
5349,2009-01-01 00:00:00,0,-28.4162,151.08,INGLEWOOD,QLD,,0,0,0,0,0,0,0,0
5350,2009-01-11 14:00:00,0,-28.0167,143.8,THARGOMINDAH,QLD,,52,0,0,0,0,0,0,0
5351,2008-12-02 00:00:00,0,-20.0765,146.2614,CHARTERS TOWERS,QLD,,0,0,0,0,0,0,0,0
5352,2009-07-08 17:09:00,0,-28.7942,114.7011,GERALDTON AERODROME,WA,,55,330,31,340,0,0,0,0
5353,2009-07-20 12:23:00,0,-34.375,115.1364,CAPE LEEUWIN LIGHTHOUSE,WA,,61,250,50,250,0,0,0,0
5354,2009-07-20 10:53:00,0,-33.5381,115.0186,CAPE NATURALISTE LIGHTHOUSE,WA,,59,240,42,240,0,0,0,0
5355,2009-07-20 16:01:00,0,-31.9544,116.0492,GOOSEBERRY HILL,WA,,53,240,36,240,0,0,0,0
5356,2009-08-11 18:04:00,0,-33.6439,115.3442,BUSSELTON JETTY,WA,,49,320,26,330,0,0,0,0
5357,2009-08-12 01:41:00,0,-34.375,115.1364,CAPE LEEUWIN LIGHTHOUSE,WA,,54,290,34,310,0,0,0,0
5358,2009-08-14 03:00:00,0,-34.375,115.1364,CAPE LEEUWIN LIGHTHOUSE,WA,,63,290,48,290,0,0,0,0
5359,2009-08-15 05:24:00,0,-32.0061,115.5369,ROTTNEST ISLAND AERODROME,WA,,55,230,31,230,0,0,0,0
5360,2009-09-10 05:42:00,0,-33.6439,115.3442,BUSSELTON JETTY,WA,,64,290,47,290,0,0,0,0
5361,2009-09-10 00:17:00,0,-32.0997,115.8761,JANDAKOT AIRPORT,WA,,49,310,32,310,0,0,0,0
5362,2009-09-16 07:13:00,0,-25.0306,128.3,GILES METEOROLOGICAL STATION,WA,,50,240,18,290,0,0,0,0
5363,2009-09-21 08:46:00,0,-32.0061,115.5369,ROTTNEST ISLAND AERODROME,WA,,56,230,37,230,0,0,0,0
5364,2009-09-28 04:00:00,0,-23.3583,119.7303,NEWMAN,WA,,35,230,20,230,0,0,0,0
5365,2009-10-05 08:30:00,35,-18.1394,125.775,FOSSIL DOWNS,WA,Fossil Downs statiion,0,0,0,0,0,0,0,0
5366,2009-10-10 14:24:00,0,-30.8436,128.1122,FORREST AERODROME,WA,,50,300,35,300,0,0,0,0
5367,2009-10-24 18:30:00,0,-31.9544,116.0492,GOOSEBERRY HILL,WA,,52,90,32,90,0,0,0,0
5368,2009-11-06 12:04:00,0,-33.8656,121.8878,ESPERANCE,WA,,65,360,27,350,0,0,0,0
5369,2009-11-08 08:43:00,0,-30.8436,128.1122,FORREST,WA,,53,18,23,170,0,0,0,0
5370,2009-11-11 08:00:00,0,-30.8936,116.7186,WONGAN HILLS,WA,,0,0,0,0,0,0,0,0
5371,2009-11-12 07:33:00,0,-29.2117,116.0106,MORAWA,WA,,59,320,16,280,0,0,0,0
5372,2009-11-17 06:29:00,0,-28.6233,122.4011,LAVERTON,WA,,64,295,24,330,0,0,0,0
5373,2009-12-02 05:40:00,0,-15.5053,128.1519,WYNDHAM AERODROME,WA,,51,130,32,130,0,0,0,0
5374,2009-12-15 11:40:00,0,-28.8853,121.3311,LEONORA,WA,,50,290,22,280,0,0,0,0
5375,2009-12-15 12:20:00,0,-23.1958,117.7039,PARABURDOO,WA,,54,260,25,270,0,0,0,0
5376,2009-12-22 07:04:00,0,0.0,0.0,Southern Cross,WA,,50,345,27,340,0,0,0,0
5377,2009-11-18 06:16:00,0,-31.6228,117.2164,CUNDERDIN AERODROME,WA,,51,295,30,300,0,0,0,0
5378,2010-01-04 07:51:00,0,-23.1958,117.7039,PARABURDOO,WA,,49,303,20,320,0,0,0,0
5379,2010-01-06 12:49:00,0,-31.2272,119.3267,SOUTHERN CROSS,WA,,49,278,26,260,0,0,0,0
5380,2010-01-09 07:00:00,0,-31.1122,117.7919,TRAYNING,WA,,0,0,0,0,0,0,0,0
5381,2009-11-21 17:58:00,32,-29.6477,138.0649,MARREE,SA,Marree AWS,60,290,0,0,0,0,0,0
5382,2010-01-15 12:53:00,0,-22.2317,114.0872,LEARMONTH AERODROME,WA,,53,90,36,90,0,0,0,0
5466,2009-08-29 05:36:00,0,-35.9371,148.3779,Cabramurra,NSW,CBMR AWS,52,290,16,290,0,0,0,0
5467,2009-08-29 05:25:00,0,-35.9371,148.3779,Cabramurra,NSW,CBMR AWS,50,290,30,290,0,0,0,0
5468,2009-09-04 00:00:00,0,-30.9484,149.0679,BARADINE,NSW,9am synop,0,0,0,0,0,0,0,0
5469,2009-11-13 08:44:00,0,-27.1,151.2,Dalby,QLD,,55,0,0,0,0,0,0,0
5470,2009-11-17 05:56:00,0,-27.1,151.2,Dalby,QLD,,59,0,0,0,0,0,0,0
5471,2009-11-19 10:09:00,0,-25.53,139.21,Birdsville,QLD,,51,0,0,0,0,0,0,0
5472,2009-11-23 05:50:00,0,-20.43,143.08,Richmond,QLD,,67,0,0,0,0,0,0,0
5473,2009-11-29 05:00:00,0,-27.19,153.03,Deagon,QLD,,0,0,0,0,0,0,0,0
5474,2009-11-29 02:25:00,0,-25.55,153.11,Double Island Point,QLD,,71,0,0,0,0,0,0,0
5475,2009-12-01 00:00:00,0,-25.48,152.37,Bauple,QLD,,0,0,0,0,0,0,0,0
5476,2009-12-02 04:00:00,0,-23.07,150.44,Yeppoon,QLD,,60,0,0,0,0,0,0,0
5477,2009-12-02 04:00:00,0,-23.07,150.44,Yeppoon,QLD,,60,0,0,0,0,0,0,0
5478,2009-12-12 04:15:00,0,-26.32,151.5,Kingaroy,QLD,,52,0,0,0,0,0,0,0
5479,2009-12-19 17:00:00,0,-20.21,148.57,Hamilton Island,QLD,,60,0,0,0,0,0,0,0
5480,2009-12-22 03:00:00,0,-28.02,148.34,St George,QLD,,71,0,0,0,0,0,0,0
5481,2009-12-22 07:39:00,0,-20.39,141.44,Julia Creek,QLD,,65,0,0,0,0,0,0,0
5484,2009-12-24 04:45:00,0,-27.26,141.38,Ballera,QLD,,50,0,0,0,0,0,0,0
5485,2010-01-14 09:54:00,0,-26.24,146.14,Charleville,QLD,,51,0,0,0,0,0,0,0
5486,2010-01-23 17:00:00,0,-16.45,145.58,Green Island,QLD,,49,0,0,0,0,0,0,0
5487,2010-01-24 04:45:00,0,-27.26,141.38,Ballera,QLD,,50,0,0,0,0,0,0,0
5488,2010-01-27 06:50:00,0,-28.1,153.32,Coolangatta,QLD,,51,0,0,0,0,0,0,0
5490,2010-04-29 04:03:00,0,-27.33,152.16,Gatton UQ,QLD,,59,0,0,0,0,0,0,0
5491,2010-01-30 08:06:00,0,-18.32,146.2,Lucinda,QLD,,49,0,0,0,0,0,0,0
5492,2010-01-30 17:03:00,0,-23.26,144.15,Longreach,QLD,,55,0,0,0,0,0,0,0
5506,2009-09-07 07:00:00,0,-33.5817,150.6179,BOWEN MOUNTAIN,NSW,Spotter,0,0,0,0,0,0,0,0
5507,2009-09-07 07:20:00,0,-34.0484,150.6846,CAMDEN AERODROME,NSW,Camden AP Tower,50,0,0,0,0,0,0,0
5508,2009-09-22 04:53:00,0,-33.3817,148.0012,FORBES,NSW,AWS,51,280,0,0,0,0,0,0
5510,2009-09-22 06:18:00,0,-34.8817,150.6012,NOWRA,NSW,Nowra AWS,51,260,0,0,0,0,0,0
5511,2009-09-22 06:49:00,0,-34.5484,150.3679,MOSS VALE,NSW,Moss Vale AWS,59,290,0,0,0,0,0,0
5512,2009-09-22 07:10:00,0,-34.4234,150.8929,TOWN OF WOLLONGONG,NSW,Wollongong AWS,52,300,0,0,0,0,0,0
5513,2009-09-22 08:30:00,0,-33.9484,151.1762,SYDNEY (KINGSFORD-SMITH) AIRPORT,NSW,Reports from SAMU,49,0,0,0,0,0,0,0
5514,2009-09-22 12:00:00,0,-34.9734,149.0346,MURRUMBATEMAN,NSW,Spotter? Media?,0,0,0,0,0,0,0,0
5515,2009-10-02 06:05:00,0,-31.0817,150.8511,TAMWORTH AIRPORT,NSW,Tamworth AWS,50,300,0,0,0,0,0,0
5516,2009-10-02 05:39:00,0,-31.7416,150.7937,MURRURUNDI GAP,NSW,Murrurundi AWS,49,300,0,0,0,0,0,0
5517,2009-10-02 05:51:00,0,-31.7416,150.7937,MURRURUNDI GAP,NSW,Murrurundi AWS,60,310,0,0,0,0,0,0
5518,2009-10-05 05:20:00,0,-29.6817,152.9678,SWAN CREEK,NSW,Spotter,0,0,0,0,0,0,0,0
5524,2010-04-28 09:41:00,0,-15.7844,128.7133,KUNUNURRA AERODROME,WA,Kununurra AWS,52,87,0,0,0,0,0,0
5528,2010-01-31 08:51:00,0,-15.7844,128.7133,KUNUNURRA AERODROME,WA,Kununurra AWS,53,197,0,0,0,0,0,0
5529,2010-01-31 09:10:00,0,-15.5053,128.1519,WYNDHAM AERODROME,WA,Wyndham AWS,67,193,0,0,0,0,0,0
5530,2009-10-14 04:24:00,0,-32.9185,151.7985,Nobbys,NSW,Nobbys AWS,50,290,0,0,0,0,0,0
5531,2009-10-25 08:00:00,0,-31.5651,147.2012,NYNGAN,NSW,Storm Spotter,0,0,0,0,0,0,0,0
5533,2009-11-20 03:02:00,0,-33.6817,151.2346,PITTWATER,NSW,SES Operations,0,0,0,0,0,0,0,0
5534,2009-11-20 05:25:00,0,-33.7484,150.7512,PENRITH,NSW,Penrith AWS,51,360,0,0,0,0,0,0
5535,2009-11-20 05:38:00,0,-32.1317,150.3511,MERRIWA,NSW,Merriwa AWS,55,270,0,0,0,0,0,0
5536,2009-11-20 06:10:00,0,-33.6817,151.2346,PITTWATER,NSW,SES Operations,0,0,0,0,0,0,0,0
5537,2009-11-20 07:38:00,0,-32.8317,151.3511,CESSNOCK,NSW,CEssnock AWS,50,0,0,0,0,0,0,0
5538,2009-11-20 08:40:00,0,-33.6484,151.2846,CHURCH POINT,NSW,SES Operations,0,0,0,0,0,0,0,0
5539,2009-11-20 08:40:00,0,-32.8317,151.3511,CESSNOCK,NSW,SES Operations,0,0,0,0,0,0,0,0
5540,2009-11-20 05:30:00,0,-33.6151,151.3095,PITTWATER,NSW,Spotter,55,0,0,0,0,0,0,0
5567,2009-09-16 08:43:00,21,-25.25,130.9667,YULARA,NT,AWS,63,250,49,250,0,0,0,0
5568,2009-09-16 08:30:00,0,-25.3167,131.75,CURTIN SPRINGS,NT,Station Owner,60,0,0,0,0,0,0,0
5569,2009-11-01 06:46:00,16,-16.0742,136.3025,BORROLOOLA AERODROME,NT,AWS,59,100,33,100,0,0,0,0
5570,2009-11-01 05:09:00,3,-15.811,136.6754,MCARTHUR RIVER,NT,AWS,43,120,25,120,0,0,0,0
5571,2009-11-02 06:47:00,11,-25.25,130.9667,YULARA,NT,AWS,49,320,29,320,0,0,0,0
5572,2009-11-13 07:23:00,29,-16.0742,136.3025,BORROLOOLA AERODROME,NT,AWS,65,100,41,100,0,0,0,0
5574,2009-11-15 06:40:00,0,-12.4101,130.8768,DARWIN INTERNATIONAL AIRPORT,NT,,0,0,0,0,0,0,0,0
5575,2009-11-18 07:21:00,3,-12.6441,131.0917,NOONAMAH,NT,,28,130,20,130,0,0,0,0
5576,2009-11-20 05:49:00,10,-23.8045,133.9037,ALICE SPRINGS AIRPORT,NT,,48,350,16,350,0,0,0,0
5577,2009-11-20 05:49:00,10,-23.8045,133.9037,ALICE SPRINGS AIRPORT,NT,,48,350,16,350,0,0,0,0
5578,2009-11-20 06:58:00,28,-23.275,129.3834,KINTORE,NT,AWS,40,300,28,300,0,0,0,0
5579,2006-02-17 06:00:00,5,-43.492,147.142,CAPE BRUNY LIGHTHOUSE,TAS,Bureau co-operative observer,62,200,0,0,0,0,0,0
5580,2009-12-01 07:00:00,0,-12.4626,130.8429,DARWIN CITY,NT,Cruise Ship anemometer,69,0,0,0,0,0,0,0
5581,2009-12-01 06:50:00,0,-12.4821,130.8286,PORT DARWIN,NT,Davis anemometer,58,0,0,0,0,0,0,0
5582,2009-12-07 11:16:00,7,-25.25,130.9667,YULARA,NT,AWS,53,260,37,260,0,0,0,0
5583,2009-12-08 07:37:00,23,-12.599,131.3261,MIDDLE POINT,NT,AWS,49,200,29,200,0,0,0,0
5584,2009-12-09 07:39:00,21,-12.599,131.3261,Territory Grape Farm,NT,AWS,49,210,231,210,0,0,0,0
5585,2009-12-10 10:03:00,17,-13.0572,131.027,BATCHELOR AIRFIELD,NT,AWS,54,160,26,160,0,0,0,0
5586,2009-12-10 10:03:00,17,-13.0572,131.027,BATCHELOR AIRFIELD,NT,AWS,54,160,26,160,0,0,0,0
5587,2009-12-23 06:48:00,12,-25.25,130.9667,YULARA,NT,AWS,64,340,43,310,0,0,0,0
5588,2010-01-17 07:00:00,0,-12.9138,131.6732,ANNABURROO HOMESTEAD,NT,,50,0,0,0,0,0,0,0
5589,2010-01-17 08:30:00,0,-12.7624,130.5251,DUNDEE DOWNS,NT,,48,0,0,0,0,0,0,0
5590,2010-01-27 14:55:00,0,-12.7624,130.5251,DUNDEE DOWNS,NT,,53,0,0,0,0,0,0,0
5591,2010-01-27 14:55:00,0,-12.4626,130.8429,DARWIN CITY,NT,,63,0,0,0,0,0,0,0
5592,2010-01-30 00:00:00,60,-11.1,133.0,Mc Cluer Is AWS,NT,AWS,49,230,32,230,0,0,0,0
5593,2010-02-02 08:00:00,0,-16.4053,131.0125,VICTORIA RIVER DOWNS,NT,,50,0,0,0,0,0,0,0
5594,2010-02-05 06:18:00,28,-25.0306,128.3,GILES METEOROLOGICAL STATION,WA,AWS,51,10,35,10,0,0,0,0
5595,2010-02-05 08:20:00,0,-12.763,131.1517,ACACIA HILLS,NT,,53,0,0,0,0,0,0,0
5597,2010-03-25 08:20:00,0,-12.4101,130.8768,DARWIN INTERNATIONAL AIRPORT,NT,,68,0,0,0,0,0,0,0
5600,2009-06-23 19:00:00,10,-34.2591,137.7555,ARTHURTON,SA,,0,0,0,0,0,0,0,0
5601,2010-04-05 09:39:00,3,-23.8045,133.9037,ALICE SPRINGS AIRPORT,NT,AWS,27,230,17,230,0,0,0,0
5602,2009-10-12 13:10:00,390,-33.2817,151.5678,NORAH HEAD,NSW,M. Campbell,51,180,0,0,0,0,0,0
5603,2009-01-22 04:55:00,0,-36.6881,147.1444,TAWONGA,VIC,Fiona Cooper,48,225,0,0,0,0,0,0
5604,2009-11-26 02:02:00,0,-34.7485,146.5512,NARRANDERA,NSW,AWS,54,300,40,300,0,0,0,0
5605,2009-11-26 04:15:00,0,-33.3817,148.0012,FORBES,NSW,AWS,59,270,41,270,0,0,0,0
5606,2009-11-26 04:36:00,0,-33.1317,148.1679,PARKES,NSW,AWS,53,260,40,280,0,0,0,0
5607,2009-12-10 06:40:00,0,-29.1151,153.4345,EVANS HEAD,NSW,Spotter,50,0,0,0,0,0,0,0
5608,2009-12-14 04:00:00,40,-29.7317,151.7511,GLEN INNES,NSW,SES,0,0,0,0,0,0,0,0
5609,2009-12-14 12:00:00,50,-30.6415,152.9906,NAMBUCCA HEADS,NSW,Spotter,57,0,0,0,0,0,0,0
5610,2009-12-17 03:19:00,0,-34.6985,146.5179,NARRANDERA-LEETON AERODROME,NSW,AWS,52,320,42,310,0,0,0,0
5611,2009-12-17 04:02:00,0,-34.6985,146.5179,NARRANDERA-LEETON AERODROME,NSW,AWS,48,300,37,300,0,0,0,0
5612,2009-12-17 03:46:00,0,-36.0652,146.9347,ALBURY AIRPORT,NSW,AWS,58,310,41,310,0,0,0,0
5613,2009-12-17 03:57:00,0,-34.2485,146.0679,GRIFFITH AIRPORT,NSW,AWS,49,300,36,300,0,0,0,0
5614,2009-12-17 03:13:00,0,-34.5318,144.818,HAY AIRPORT,NSW,AWS,49,330,33,250,0,0,0,0
5615,2009-12-17 04:42:00,0,-34.5985,146.4179,YANCO,NSW,AWS,48,310,35,310,0,0,0,0
5616,2009-12-17 05:23:00,0,-35.1318,147.4179,WAGGA WAGGA AERODROME,NSW,AWS,54,270,33,270,0,0,0,0
5617,2009-12-17 06:52:00,0,-33.3817,148.0012,FORBES,NSW,AWS,54,310,40,310,0,0,0,0
5618,2009-12-17 06:02:00,0,-31.4985,143.368,WILCANNIA AERODROME,NSW,AWS,61,270,46,270,0,0,0,0
5619,2009-12-21 06:50:00,0,-32.5651,151.1678,SINGLETON,NSW,SES/media,0,0,0,0,0,0,0,0
5620,2010-01-03 01:30:00,30,-30.5151,151.665,ARMIDALE,NSW,Weatherzone,0,0,0,0,0,0,0,0
5621,2010-01-05 00:43:00,0,-35.1318,147.4179,WAGGA WAGGA AERODROME,NSW,AWS,51,270,39,270,0,0,0,0
5622,2010-01-10 07:00:00,0,-31.2651,149.2679,COONABARABRAN,NSW,SES,0,0,0,0,0,0,0,0
5623,2010-01-13 07:46:00,0,-30.9484,150.2511,GUNNEDAH AERODROME,NSW,AWS,50,40,40,40,0,0,0,0
5624,2010-01-17 04:38:00,0,-31.7651,150.8345,MURRURUNDI,NSW,AWS,48,310,25,310,0,0,0,0
5625,2010-01-17 04:57:00,0,-32.0484,150.8678,SCONE,NSW,AWS,50,320,23,320,0,0,0,0
5626,2010-01-17 05:00:00,0,-29.6817,152.9345,GRAFTON,NSW,SES,0,0,0,0,0,0,0,0
5627,2010-01-17 03:00:00,0,-31.4651,152.7345,WAUCHOPE,NSW,SES,0,0,0,0,0,0,0,0
5628,2010-01-27 05:04:00,0,-28.8817,153.0511,CASINO AIRPORT,NSW,AWS,49,270,32,270,0,0,0,0
5629,2010-01-27 05:00:00,0,-28.8984,152.7178,MALLANGANEE,NSW,Spotter,0,0,0,0,0,0,0,0
5630,2010-01-27 05:20:00,0,-28.7817,153.1678,FERNSIDE,NSW,Spotter,59,0,0,0,0,0,0,0
5631,2010-01-27 05:00:00,0,-28.8484,153.0511,CASINO,NSW,Spotter,0,0,0,0,0,0,0,0
5632,2010-01-27 04:55:00,20,-33.2817,149.1012,ORANGE,NSW,Weatherzone,0,0,0,0,0,0,0,0
5633,2010-06-28 09:14:00,0,-32.7817,151.3345,CESSNOCK AERODROME,NSW,AWS,49,150,32,200,0,0,0,0
5634,2010-06-28 07:30:00,0,-31.2317,151.0178,LOOMBERAH,NSW,Spotter,40,0,0,0,0,0,0,0
5635,2010-01-31 08:48:00,0,-32.2067,148.5762,DUBBO AIRPORT,NSW,AWS,55,70,36,70,0,0,0,0
5636,2010-02-10 05:10:00,0,-36.1651,149.3346,NUMERALLA,NSW,Storm spotter,54,0,0,0,0,0,0,0
5638,2010-02-12 05:00:00,0,-34.6651,150.8512,KIAMA,NSW,AWS,56,210,34,210,0,0,0,0
5640,2010-02-12 05:00:00,0,-34.7484,150.8346,GERRINGONG,NSW,SES,0,0,0,0,0,0,0,0
5643,2010-02-12 04:30:00,15,-33.8651,150.9512,FAIRFIELD,NSW,SES,0,0,0,0,0,0,0,0
5644,2010-02-12 05:00:00,0,-33.1317,148.1679,PARKES,NSW,Weatherzone,0,0,0,0,0,0,0,0
5645,2010-02-23 04:15:00,0,-30.3151,149.5678,CULGOORA,NSW,Spotter,51,0,0,0,0,0,0,0
5646,2010-02-23 07:30:00,30,-30.9651,151.3511,WOOLBROOK,NSW,Spotter,54,0,0,0,0,0,0,0
5647,2010-02-26 06:01:00,0,-30.8485,143.0846,WHITE CLIFFS,NSW,AWS,52,60,34,50,0,0,0,0
5648,2010-02-26 07:45:00,0,-30.8485,143.0846,WHITE CLIFFS,NSW,AWS,55,100,34,70,0,0,0,0
5649,2010-06-02 22:45:00,0,-28.6317,153.6345,CAPE BYRON,NSW,AWS,48,210,29,170,0,0,0,0
5650,2009-08-15 21:34:00,5,-29.0388,134.7216,COOBER PEDY AERODROME,SA,,51,310,23,310,0,0,0,0
5651,2009-08-16 01:10:00,5,-37.1643,139.7568,ROBE,SA,,52,360,20,360,0,0,0,0
5652,2009-08-16 01:44:00,5,-34.4707,138.9959,NURIOOTPA,SA,,56,330,20,330,0,0,0,0
5653,2009-09-16 20:27:00,5,-30.5924,138.4003,LEIGH CREEK,SA,,51,280,25,270,0,0,0,0
5654,2009-09-16 20:10:00,10,-29.6477,138.0649,MARREE,SA,,67,250,40,250,0,0,0,1
5655,2009-11-19 17:10:00,2,-30.7081,134.5701,TARCOOLA,SA,,53,330,20,330,0,0,0,0
5656,2009-11-19 00:00:00,5,-29.0388,134.7216,COOBER PEDY AERODROME,SA,,49,290,18,300,0,0,0,0
5657,2009-11-19 21:30:00,10,-35.0841,137.7446,EDITHBURGH,SA,,55,310,32,310,0,0,0,0
5658,2009-11-19 22:00:00,5,-36.9554,139.7078,CAPE JAFFA,SA,,53,10,20,360,0,0,0,0
5659,2010-06-11 00:00:00,3,-37.7467,140.7851,MOUNT GAMBIER AIRPORT,SA,,50,350,25,350,0,0,0,0
5660,2009-11-20 02:30:00,5,-37.7467,140.7851,MOUNT GAMBIER AIRPORT,SA,,53,320,25,320,0,0,0,0
5671,2010-06-17 03:00:00,20,-36.726,147.1478,TAWONGA SOUTH,VIC,Fiona Cooper,49,315,0,0,0,0,0,0
5672,2010-06-17 02:30:00,10,-36.3624,146.6879,BEECHWORTH,VIC,Marjorie Dixon,54,315,0,0,0,0,0,0
5673,2007-05-03 06:46:00,5,-40.122,148.016,WHITEMARK,TAS,Bureau automatic weather station,55,300,37,270,0,0,0,0
5674,2007-05-02 22:50:00,10,-41.04,145.828,SOMERSET,TAS,Members of the public,0,0,0,0,0,0,0,0
5680,2009-04-14 20:15:00,20,-40.947,145.635,BOAT HARBOUR,TAS,Member of the public,0,0,0,0,0,0,320,2
5681,2009-04-14 20:25:00,10,-40.99,145.722,WYNYARD,TAS,Member of the public,46,350,24,250,0,0,340,1
5682,2009-04-14 21:15:00,3,-41.168,146.429,DEVONPORT AIRPORT,TAS,Bureau automatic weather station,63,290,49,290,0,0,340,0
5683,2009-04-14 21:15:00,3,-41.383,146.324,SHEFFIELD,TAS,Bureau automatic weather station,59,300,39,310,0,0,340,0
5684,2009-04-14 21:45:00,10,-41.527,146.836,WESTBURY,TAS,Member of the public,0,0,0,0,1300,200,340,0
5685,2009-04-14 21:55:00,10,-41.001,147.07,LULWORTH,TAS,Member of the public,0,0,0,0,0,35,320,1
5686,2009-04-14 22:50:00,0,-41.221,148.021,LOTTAH,TAS,Storm spotter,0,0,0,0,100,0,320,0
5687,2009-04-14 22:10:00,20,-41.163,147.51,SCOTTSDALE,TAS,Members of the public,0,0,0,0,0,0,320,0
5688,2009-04-14 22:30:00,20,-41.082,147.936,PIONEER,TAS,Bureau co-operative observer and storm spotter,0,0,0,0,0,0,320,0
5689,2009-08-20 21:25:00,1,-39.88,143.881,KING ISLAND AIRPORT,TAS,Bureau automatic weather station,62,300,310,45,0,0,0,0
5690,2009-08-20 21:25:00,1,-40.901,144.649,GREEN POINT,TAS,Member of the public,0,0,0,0,0,0,0,0
5691,2009-08-20 22:35:00,3,-40.844,145.12,SMITHTON,TAS,Bureau automatic weather station,44,350,33,350,0,0,0,0
5692,2009-08-20 22:35:00,3,-40.99,145.722,WYNYARD,TAS,Bureau automatic weather station,29,360,20,330,0,0,0,0
5693,2009-08-21 00:00:00,16,-41.178,146.359,DEVONPORT,TAS,Bureau automatic weather station,41,350,31,350,0,0,0,0
5694,2009-08-21 00:00:00,10,-41.383,146.324,SHEFFIELD,TAS,Bureau automatic weather station,45,10,30,10,0,0,0,0
5695,2009-08-24 18:29:00,6,-42.154,145.326,STRAHAN,TAS,Bureau automatic weather station,53,290,38,290,0,0,0,0
5696,2009-11-20 00:00:00,0,-37.6838,144.5834,MELTON,VIC,,55,0,0,0,0,0,0,0
5697,2009-12-31 07:00:00,0,-37.514,141.4436,WANDO VALE,VIC,Jean McCallum,0,0,0,0,6000,500,0,0
5698,2010-01-16 18:30:00,0,-38.3461,141.6019,PORTLAND,VIC,David Tucek - SES,0,0,0,0,0,0,0,0
5699,2010-01-17 13:15:00,0,-38.0386,145.1118,EDITHVALE,VIC,SES,0,0,0,0,0,0,0,0
5700,2010-01-31 03:10:00,0,-37.0479,143.7347,MARYBOROUGH,VIC,Graham Coates,0,0,0,0,1000,100,315,0
5701,2010-02-09 08:00:00,0,-36.7177,144.249,EAGLEHAWK,VIC,SES,0,0,0,0,0,0,0,0
5702,2010-02-10 02:25:00,0,-37.24,145.2176,STRATH CREEK,VIC,David Wakefield,0,0,0,0,0,0,0,0
5703,2010-02-10 06:00:00,0,-36.4924,147.0668,UPPER GUNDOWRING PUBLIC HALL,VIC,,0,0,0,0,0,0,0,0
5704,2010-02-11 05:00:00,0,-37.7043,144.5702,MELTON SOUTH,VIC,Greg,0,0,0,0,0,0,0,0
5706,2010-02-26 04:00:00,0,-34.7182,143.1437,BOUNDARY BEND,VIC,Ann Conner,0,0,0,0,0,0,0,0
5707,2010-03-06 02:30:00,0,-36.9176,143.8678,EDDINGTON,VIC,Jane Oneill,0,0,0,0,0,0,0,0
5717,2010-03-06 06:22:00,0,-38.2122,146.4746,LATROBE VALLEY AERODROME,VIC,,51,0,0,0,0,0,0,0
5718,2010-03-07 05:38:00,0,-36.3827,145.3968,SHEPPARTON,VIC,,84,336,52,350,0,0,0,0
5719,2010-06-17 02:00:00,0,-36.3555,146.3257,WANGARATTA,VIC,Michael Osullivan,47,265,25,270,0,0,0,0
5720,2010-06-17 00:45:00,0,-37.7772,144.997,NORTHCOTE,VIC,Building Worker,0,0,0,0,0,0,0,0
5721,2010-06-17 00:00:00,0,-37.5632,143.8554,BALLARAT,VIC,3BA presenter,0,0,0,0,0,0,0,0
5722,2010-06-17 00:00:00,0,-37.5856,143.8596,MOUNT PLEASANT,VIC,SES control,0,0,0,0,0,0,0,0
5723,2010-06-17 00:05:00,0,-37.7043,144.5702,MELTON SOUTH,VIC,Greg,0,0,0,0,0,0,0,0
5724,2010-06-17 00:35:00,0,-37.8354,144.9716,ST KILDA ROAD,VIC,,61,0,0,0,0,0,0,0
5743,2010-07-13 11:40:00,50,-36.3787,146.7313,SILVER CREEK,VIC,Marjorie Dixon,48,0,0,0,0,0,0,0
5744,2010-07-13 12:00:00,0,-36.3624,146.6879,BEECHWORTH,VIC,Media report,0,0,0,0,0,0,0,0
5745,2010-03-06 03:16:00,0,-37.7881,144.7991,NORMAN AINSWORTH RESERVE,VIC,Peter Ryan,48,225,0,0,0,0,0,0
5746,2010-10-26 01:22:00,0,-28.8679,151.7994,BALLANDEAN,QLD,,64,0,0,0,0,0,0,0
5747,2010-10-26 03:00:00,0,-28.2154,152.0353,WARWICK,QLD,AWS,54,0,0,0,0,0,0,0
5748,2010-07-30 10:00:00,0,-37.4313,143.3825,BEAUFORT,VIC,Justin SES SDO,0,0,0,0,0,0,0,0
5768,2010-02-09 21:35:00,0,-32.1961,121.7781,NORSEMAN,WA,,57,14,0,0,0,0,0,0
5769,2010-02-14 21:54:00,0,-21.1717,119.7458,MARBLE BAR,WA,,51,87,0,0,0,0,0,0
5770,2010-02-25 16:56:00,0,-29.2117,116.0106,MORAWA,WA,,64,0,0,0,0,0,0,0
5771,2010-03-22 19:14:00,0,-31.675,117.2533,CUNDERDIN,WA,,69,0,0,0,0,0,0,1
5772,2010-03-22 15:47:00,0,-31.7539,115.7342,OCEAN REEF,WA,,65,0,0,0,0,0,0,1
5773,2010-03-22 14:58:00,0,-30.3986,115.5542,BADGINGARRA,WA,,63,0,0,0,0,0,0,0
5774,2010-03-22 16:30:00,0,-32.1069,115.8672,JANDAKOT,WA,,52,0,0,0,0,0,0,0
5775,2010-04-14 13:45:00,0,-33.5314,115.0025,CAPE NATURALISTE,WA,,53,0,0,0,0,0,0,0
5776,2010-04-14 09:34:00,0,-33.6439,115.3442,BUSSELTON JETTY,WA,,52,0,0,0,0,0,0,0
5777,2010-07-12 05:11:00,0,-33.5314,115.0025,CAPE NATURALISTE,WA,,60,259,0,0,0,0,0,0
5784,2010-07-09 04:46:00,0,-28.3017,113.5964,NORTH ISLAND,WA,,61,259,0,0,0,0,0,0
5859,2010-12-09 00:00:00,0,-20.0765,146.2614,CHARTERS TOWERS,QLD,,0,0,0,0,0,0,0,0
5868,2009-11-18 06:16:00,5,-32.4151,139.568,YUNTA,SA,Yunta AWS,60,320,34,320,0,0,0,0
5869,2009-11-18 07:27:00,10,-32.4151,139.568,YUNTA,SA,Yunta AWS,51,330,40,330,0,0,0,0
5870,2009-11-25 07:10:00,10,-34.2541,140.472,BARMERA,SA,,0,0,0,0,0,0,0,1
5871,2009-11-25 07:30:00,10,-34.1811,139.9865,WAIKERIE,SA,,0,0,0,0,0,0,0,0
5872,2009-11-27 06:50:00,10,-34.1972,140.6729,RENMARK,SA,Renmark AWS,49,280,35,280,0,0,0,0
5873,2009-12-31 07:44:00,10,-35.3291,140.5175,LAMEROO,SA,Lameroo AWS,76,270,60,270,0,0,0,1
5874,2010-01-01 08:43:00,10,-29.6454,138.0638,MARREE,SA,Marree Aero AWS,51,210,43,210,0,0,0,0
5875,2010-01-28 04:08:00,10,-26.26,132.18,Ernabella,SA,Pukatja AWS,67,280,43,280,0,0,0,1
5876,2010-01-28 07:16:00,10,-27.5616,135.442,OODNADATTA,SA,Oodnadatta Airport AWS,58,300,38,300,0,0,0,0
5877,2010-01-31 05:19:00,10,-29.6454,138.0638,MARREE,SA,Marree Aero AWS,60,170,40,170,0,0,0,0
5878,2010-02-02 05:45:00,10,-33.7234,135.7084,MURDINGA,SA,,0,0,0,0,0,0,0,0
5879,2010-02-02 07:00:00,10,-33.8658,138.0081,BUTE,SA,,0,0,0,0,0,0,0,0
5880,2010-02-07 06:25:00,5,-31.44,130.8976,NULLARBOR,SA,Nullarbor AWS,54,210,29,210,0,0,0,0
5881,2010-02-10 04:30:00,0,-34.6047,138.8904,LYNDOCH,SA,,0,0,0,0,0,0,0,0
5882,2010-02-10 00:00:00,0,-34.5727,139.2969,SEDAN,SA,,0,0,0,0,0,0,0,0
5883,2010-02-21 10:50:00,10,-30.6011,138.4292,LEIGH CREEK,SA,Leigh Creek Airport AWS,51,200,43,200,0,0,0,0
5884,2011-02-28 08:15:00,55,-31.9652,141.4513,BROKEN HILL,NSW,Storm Spotter,40,275,0,0,0,0,0,0
5885,2011-02-28 08:15:00,55,-31.9652,141.4513,BROKEN HILL,NSW,Storm Spotter,40,275,0,0,0,0,0,0
5887,2010-09-10 04:00:00,3,-34.5651,150.7846,ALBION PARK AERODROME,NSW,Wollongong AP AWS,52,300,0,0,0,0,0,0
5888,2010-09-27 03:27:00,0,-30.9651,148.3679,COONAMBLE AIRPORT,NSW,Coonamble AP AWS,52,330,0,0,0,0,0,0
5889,2010-10-30 08:13:00,0,-34.7485,146.5512,NARRANDERA,NSW,Narrandera AWS,52,330,0,0,0,0,0,0
5890,2011-04-12 03:45:00,0,-27.9881,152.9958,BEAUDESERT,QLD,,0,0,0,0,0,0,0,0
5891,2011-04-12 06:00:00,0,-27.879,151.2683,MILLMERRAN,QLD,,0,0,0,0,0,0,0,0
5892,2010-09-29 06:01:00,0,-25.5234,152.6969,MARYBOROUGH,QLD,,49,0,0,0,0,0,0,0
5893,2010-09-28 06:00:00,0,-27.879,151.2683,MILLMERRAN,QLD,,0,0,0,0,0,0,0,0
5894,2010-09-28 05:35:00,0,-28.0395,152.6172,BUNJURGEN,QLD,,0,0,0,0,0,0,0,0
5895,2010-11-10 05:39:00,0,-31.7651,150.8345,MURRURUNDI,NSW,Murrurundi Gap AWS,52,160,0,0,0,0,0,0
5896,2010-10-09 16:35:00,0,-25.9167,153.1833,DOUBLE ISLAND POINT,QLD,,50,0,0,0,0,0,0,0
5897,2010-10-09 20:10:00,0,-27.0317,153.4655,CAPE MORETON CONSERVATION PARK,QLD,,49,0,0,0,0,0,0,0
5898,2010-10-10 04:22:00,0,-27.0317,153.4655,CAPE MORETON CONSERVATION PARK,QLD,,57,0,0,0,0,0,0,0
5899,2010-10-15 12:00:00,0,-27.0317,153.4655,CAPE MORETON CONSERVATION PARK,QLD,,49,0,0,0,0,0,0,0
5900,2010-10-15 16:28:00,0,-27.2284,153.1161,REDCLIFFE BEACH,QLD,,50,0,0,0,0,0,0,0
5901,2010-10-28 03:00:00,0,-27.9881,152.9958,BEAUDESERT,QLD,,0,0,0,0,0,0,0,0
5902,2010-11-13 05:29:00,0,-27.4333,141.6333,BALLERA,QLD,,59,0,0,0,0,0,0,0
5903,2010-11-24 06:46:00,0,-17.8527,139.6209,BURKETOWN,QLD,,56,0,0,0,0,0,0,0
5904,2010-12-03 04:40:00,20,-35.6318,145.8013,Berrigan,NSW,Storm Spotter,0,0,0,0,0,0,0,0
5905,2010-12-01 02:30:00,0,-31.5317,146.7012,HERMIDALE,NSW,Member of Public,0,0,0,0,0,0,0,0
5906,2010-12-08 07:34:00,10,-35.1318,147.4179,WAGGA WAGGA AERODROME,NSW,YSWG AWS,52,320,29,320,0,0,0,0
5907,2010-12-09 02:08:00,2,-33.3817,149.1346,ORANGE AIPORT,NSW,YORG AWS,33,360,48,360,0,0,0,0
5908,2010-12-07 06:54:00,0,-22.3912,143.0381,WINTON,QLD,,58,0,0,0,0,0,0,0
5909,2010-12-15 04:43:00,0,-26.1901,152.6655,GYMPIE,QLD,,47,0,0,0,0,0,0,0
5910,2010-12-15 00:00:00,0,-27.9881,152.9958,BEAUDESERT,QLD,,0,0,0,0,0,0,0,0
5911,2010-12-16 00:42:00,0,-28.6176,151.9553,APPLETHORPE,QLD,,41,0,0,0,0,0,0,0
5912,2010-12-16 03:27:00,0,-27.6304,152.6997,AMBERLEY,QLD,,49,0,0,0,0,0,0,0
5913,2010-12-16 03:48:00,0,-27.5706,152.9872,ARCHERFIELD,QLD,,41,0,0,0,0,0,0,0
5914,2010-12-16 04:20:00,0,-27.65,153.2833,REDLAND BAY,QLD,,49,0,0,0,0,0,0,0
5915,2010-12-16 05:00:00,0,-27.2333,153.1,REDCLIFFE,QLD,,52,0,0,0,0,0,0,0
5916,2010-12-16 05:15:00,0,-26.8092,152.9655,LANDSBOROUGH,QLD,,0,0,0,0,0,0,0,0
5917,2010-12-16 05:17:00,0,-27.0317,153.4655,CAPE MORETON CONSERVATION PARK,QLD,,52,0,0,0,0,0,0,0
5918,2010-12-16 08:00:00,0,-25.9167,153.1833,DOUBLE ISLAND POINT,QLD,,55,0,0,0,0,0,0,0
5919,2010-12-16 08:06:00,0,-27.5592,151.9536,TOOWOOMBA,QLD,,42,0,0,0,0,0,0,0
5920,2010-12-16 10:17:00,0,-27.1815,151.2661,DALBY,QLD,,49,0,0,0,0,0,0,0
5921,2010-12-17 06:00:00,0,-27.2659,152.058,CROWS NEST,QLD,,0,0,0,0,0,0,0,0
5922,2010-12-17 07:54:00,0,-27.2279,153.115,REDCLIFFE,QLD,,0,0,0,0,0,0,0,0
5923,2010-12-13 07:23:00,0,-28.8817,152.5678,TABULAM,NSW,Spotter,0,0,0,0,0,0,0,0
5924,2010-12-15 09:52:00,0,-36.2517,150.2265,MONTAGUE ISLAND,NSW,YMNI AWS,49,0,0,210,0,0,0,0
5925,2010-12-15 10:00:00,0,-36.2517,150.2265,MONTAGUE ISLAND,NSW,YMNI AWS,54,210,39,210,0,0,0,0
5926,2010-12-16 10:57:00,0,-30.9484,150.2511,GUNNEDAH AERODROME,NSW,YGDH AWS,49,350,0,0,0,0,0,0
5927,2011-01-05 08:10:00,0,-35.4317,149.1512,TUGGERANONG,NSW,ACT SES,0,0,0,0,0,0,0,0
5928,2011-01-19 07:20:00,0,-29.6484,152.8011,RAMORNIE,NSW,Spotter,0,0,0,0,0,0,0,0
5929,2011-01-18 05:01:00,0,-27.6304,152.6997,AMBERLEY,QLD,,51,0,0,0,0,0,0,0
5930,2011-01-18 06:00:00,0,-27.4679,153.028,BRISBANE,QLD,,0,0,0,0,0,0,0,0
5931,2011-01-18 07:00:00,0,-27.8301,153.0313,JIMBOOMBA,QLD,,0,0,0,0,0,0,0,0
5932,2011-02-19 08:16:00,0,-21.7677,139.9195,THE MONUMENT,QLD,,48,0,0,0,0,0,0,0
5933,2011-02-02 05:51:00,0,-34.7484,149.7346,GOULBURN,NSW,YGLB AWS,50,360,27,10,0,0,0,0
5934,2011-02-04 06:53:00,0,-36.2517,150.2265,MONTAGUE ISLAND,NSW,YMNI AWS,52,320,0,0,0,0,0,0
5935,2011-02-04 06:55:00,0,-36.2517,150.2265,MONTAGUE ISLAND,NSW,YMNI AWS,55,290,0,0,0,0,0,0
5936,2011-02-04 05:00:00,0,-37.8644,144.6013,WYNDHAM VALE,VIC,Ken Moss,0,0,0,0,0,0,0,0
5937,2011-02-04 08:00:00,5,-37.8354,144.9716,ST KILDA ROAD,VIC,St Kilda AWS,60,243,53,240,0,0,0,0
5938,2011-02-04 08:46:00,2,-37.8597,144.7713,LAVERTON,VIC,Laverton AWS,71,302,52,287,0,0,0,1
5939,2011-02-04 09:17:00,1,-38.2362,146.4093,MORWELL,VIC,LaTrobe Valley AWS,61,265,47,256,0,0,0,0
5940,2010-11-07 04:45:00,0,-37.2979,144.2416,GLENLYON,VIC,Clyve Herbert,0,0,0,0,0,0,0,0
5941,2010-11-12 07:05:00,0,-38.0973,145.1764,CARRUM DOWNS,VIC,Nick,0,0,0,0,0,0,0,0
5942,2010-11-12 08:10:00,0,-38.0973,145.1764,CARRUM DOWNS,VIC,Nick,0,0,0,0,0,0,0,0
5943,2010-12-03 05:48:00,2,-38.0346,144.4671,AVALON AERODROME,VIC,Avalon Airport AWS,51,333,39,321,0,0,0,0
5944,2010-12-03 05:56:00,7,-38.1,144.54,POINT WILSON,VIC,Point Wilson AWS,54,330,45,324,0,0,0,0
5945,2010-12-03 06:23:00,1,-38.31,144.8,,VIC,South Channel Island AWS,48,352,39,358,0,0,0,0
5946,2010-12-11 12:30:00,0,-38.1612,144.3634,GEELONG,VIC,David - Geelong SES,0,0,0,0,0,0,0,0
5947,2010-12-17 07:00:00,15,-38.0773,145.4779,PAKENHAM,VIC,Dean Sgarbossa,0,0,0,0,0,0,0,0
5948,2010-12-17 23:01:00,1,-36.03,146.03,Yarrawonga,VIC,Yarrawonga AWS,51,283,39,271,0,0,0,0
5949,2010-12-19 03:47:00,1,-35.38,143.54,Swan Hill,VIC,Swan Hill AWS,60,273,37,253,0,0,0,0
5950,2011-01-10 06:00:00,0,-37.9378,145.4944,COCKATOO,VIC,SES,0,0,0,0,0,0,0,0
5951,2010-11-12 06:00:00,10,-38.5145,145.3563,NEWHAVEN,VIC,Jim Mcwilliam,80,0,0,0,0,0,0,0
5952,2010-11-13 04:00:00,0,-36.3315,146.2401,WANGANDARY,VIC,Marcus Chick,0,0,0,0,0,0,0,0
5955,2011-02-27 05:25:00,0,-30.6415,152.9906,NAMBUCCA HEADS,NSW,Spotter,0,0,0,0,0,0,0,0
5956,2011-03-01 02:51:00,0,-32.0484,150.8678,SCONE,NSW,Scone AWS,48,0,0,0,0,0,0,0
5957,2011-03-01 04:01:00,0,-31.7651,150.8345,MURRURUNDI,NSW,Murrurundi AWS,51,0,24,310,0,0,0,0
5958,2011-03-01 04:22:00,0,-30.0317,148.1012,WALGETT AIRPORT,NSW,Walgett AWS,53,0,0,0,0,0,0,0
5959,2011-03-01 04:23:00,0,-30.0317,148.1012,WALGETT AIRPORT,NSW,Walgett AWS,57,0,0,0,0,0,0,0
5960,2011-03-01 04:50:00,0,-32.9184,151.7981,NOBBYS HEAD,NSW,NEWCASTLE NOBBYS SIGNAL STN AWS,49,0,0,0,0,0,0,0
5961,2011-03-01 04:50:00,0,-30.9484,150.2511,GUNNEDAH AERODROME,NSW,Gunnedah,57,0,0,0,0,0,0,0
5962,2011-03-01 04:55:00,0,-32.9184,151.7981,NOBBYS HEAD,NSW,NEWCASTLE NOBBYS SIGNAL STN AWS,52,0,0,0,0,0,0,0
5963,2011-03-01 08:25:00,0,-30.3151,153.1178,COFFS HARBOUR AIRPORT,NSW,Coffs Harbour AWS,53,0,0,0,0,0,0,0
5964,2011-03-01 04:50:00,0,-32.7317,151.8511,MEDOWIE,NSW,Spotter,0,0,0,0,0,0,0,0
5965,2011-01-07 07:42:00,0,-21.1412,149.1858,MACKAY,QLD,,60,0,0,0,0,0,0,0
5966,2011-03-30 02:59:00,0,-34.0484,150.6846,CAMDEN,NSW,Camden AWS,48,0,0,0,0,0,0,0
5971,2011-03-30 04:15:00,0,-32.2067,148.5762,DUBBO AIRPORT,NSW,,53,0,0,0,0,0,0,0
6026,2006-02-01 07:15:00,0,-22.3912,143.0381,WINTON,QLD,,52,0,0,0,0,0,0,0
6027,2006-02-01 07:22:00,0,-22.3912,143.0381,WINTON,QLD,,52,0,0,0,0,0,0,0
6028,2006-02-01 07:24:00,0,-22.3912,143.0381,WINTON,QLD,,52,0,0,0,0,0,0,0
6029,2006-02-02 04:40:00,0,-20.7307,143.1426,RICHMOND,QLD,,59,0,0,0,0,0,0,0
6030,2006-02-02 04:41:00,0,-20.7307,143.1426,RICHMOND,QLD,,59,0,0,0,0,0,0,0
6031,2006-02-02 04:46:00,0,-20.7307,143.1426,RICHMOND,QLD,,59,0,0,0,0,0,0,0
6032,2006-02-02 08:42:00,0,-20.7046,140.5054,CLONCURRY,QLD,,52,0,0,0,0,0,0,0
6033,2006-02-02 09:00:00,0,-20.7046,140.5054,CLONCURRY,QLD,,55,0,0,0,0,0,0,0
6034,2006-02-13 06:43:00,0,-17.7407,139.5479,BURKETOWN,QLD,,50,0,0,0,0,0,0,0
6035,2006-02-13 09:14:00,0,-20.7046,140.5054,CLONCURRY,QLD,,63,0,0,0,0,0,0,0
6036,2006-02-13 09:15:00,0,-20.7046,140.5054,CLONCURRY,QLD,,63,0,0,0,0,0,0,0
6037,2006-02-19 08:37:00,0,-20.6563,141.7437,JULIA CREEK,QLD,,65,0,0,0,0,0,0,0
6038,2006-02-19 08:45:00,0,-20.6563,141.7437,JULIA CREEK,QLD,,65,0,0,0,0,0,0,0
6039,2006-02-19 08:46:00,0,-20.6563,141.7437,JULIA CREEK,QLD,,65,0,0,0,0,0,0,0
6040,2006-02-19 08:49:00,0,-20.6563,141.7437,JULIA CREEK,QLD,,64,0,0,0,0,0,0,0
6041,2006-02-19 08:51:00,0,-20.6563,141.7437,JULIA CREEK,QLD,,51,0,0,0,0,0,0,0
6042,2006-02-06 07:12:00,0,-24.4246,145.4659,BLACKALL,QLD,,52,0,0,0,0,0,0,0
6043,2006-02-06 07:13:00,0,-24.4246,145.4659,BLACKALL,QLD,,52,0,0,0,0,0,0,0
6044,2006-02-06 07:18:00,0,-24.4246,145.4659,BLACKALL,QLD,,52,0,0,0,0,0,0,0
6045,2006-02-06 08:42:00,0,-26.5734,148.787,ROMA,QLD,,51,0,0,0,0,0,0,0
6046,2006-02-06 07:00:00,0,-27.1545,149.0678,SURAT,QLD,,51,0,0,0,0,0,0,0
6047,2006-04-30 05:00:00,0,-27.9984,153.3344,GOLD COAST,QLD,,0,0,0,0,0,0,0,0
6048,2006-04-21 05:00:00,0,-27.9984,153.3344,GOLD COAST,QLD,,0,0,0,0,0,0,0,0
6049,2006-04-04 16:45:00,0,-27.9,153.0,LOGAN,QLD,,0,0,0,0,0,0,0,0
6051,2010-08-18 12:00:00,0,-35.8103,144.2165,COHUNA,VIC,Tim - SES SDO,0,0,0,0,0,0,0,0
6052,2010-08-18 12:00:00,0,-35.7323,143.9189,KERANG,VIC,Tim - SES SDO,0,0,0,0,0,0,0,0
6088,2008-04-23 11:16:00,0,-23.5361,151.2714,RUNDLE ISLAND,QLD,,57,0,0,0,0,0,0,0
6089,2010-10-29 15:30:00,30,-25.8431,133.2929,KULGERA,NT,,26,0,0,0,0,0,0,0
6090,2010-11-09 15:00:00,60,-19.6511,134.1897,TENNANT CREEK,NT,,0,0,0,0,0,0,0,0
6091,2010-11-09 17:00:00,60,-19.6511,134.1897,TENNANT CREEK,NT,,0,0,0,0,0,0,0,0
6092,2010-11-09 22:42:00,0,-16.4053,131.0125,VICTORIA RIVER DOWNS,NT,,56,0,0,0,0,0,0,0
6093,2010-11-14 14:00:00,0,-23.8045,133.9037,ALICE SPRINGS AIRPORT,NT,,37,0,0,0,0,0,0,0
6094,2010-11-16 15:20:00,420,-16.2667,133.3667,DALY WATERS,NT,,53,0,0,0,0,0,0,0
6095,2010-12-05 00:00:00,0,-12.5183,131.042,COOLALINGA,NT,,52,0,0,0,0,0,0,0
6096,2010-12-06 00:00:00,0,-12.7219,131.0103,BERRY SPRINGS,NT,,0,0,0,0,0,0,0,0
6097,2010-12-07 15:44:00,180,-25.25,130.9667,YULARA,NT,,48,0,0,0,0,0,0,0
6098,2010-12-08 15:00:00,0,-23.5391,133.9216,BOND SPRINGS,NT,,41,0,0,0,0,0,0,0
6099,2011-01-02 02:00:00,180,-25.25,130.9667,YULARA,NT,,49,100,35,100,0,0,0,0
6100,2011-01-12 00:00:00,0,-12.4101,130.8768,DARWIN INTERNATIONAL AIRPORT,NT,,48,0,0,0,0,0,0,0
6101,2011-01-27 06:30:00,0,-12.4101,130.8768,DARWIN INTERNATIONAL AIRPORT,NT,Storm Spotter,45,0,0,0,0,0,0,0
6102,2011-01-28 08:00:00,0,-23.275,129.3834,KINTORE,NT,AWS,52,50,37,50,0,0,0,0
6103,2011-01-21 14:12:00,0,-13.64,136.94,,NT,North East Island AWS,49,0,0,0,0,0,0,0
6104,2011-02-15 00:00:00,0,-12.4633,130.8409,DARWIN,NT,,0,0,0,0,0,0,0,0
6105,2011-08-11 06:30:00,0,-24.7165,152.2749,MOORE PARK,QLD,Emergency Management QLD report,0,0,0,0,0,0,0,0
6106,2011-09-09 00:00:00,0,-28.2154,152.0353,WARWICK,QLD,Emergency Management QLD report,0,0,0,0,0,0,0,0
6107,2011-10-07 19:30:00,0,-27.434,151.7211,OAKEY,QLD,BOM observation,75,0,0,0,0,0,0,1
6108,2011-10-07 23:20:00,0,-25.9167,153.1833,DOUBLE ISLAND POINT,QLD,BOM observation,60,0,0,0,0,0,0,0
6109,2011-10-13 07:26:00,0,-23.5209,148.1619,EMERALD,QLD,BOM observation,53,0,0,0,0,0,0,0
6110,2011-11-14 00:00:00,0,-27.1833,153.4,MORETON ISLAND,QLD,,0,0,0,0,0,0,0,0
6111,2011-11-09 06:11:00,0,-21.7677,139.9195,THE MONUMENT,QLD,,50,0,0,0,0,0,0,0
6112,2011-11-10 05:11:00,0,-20.726,139.494,MOUNT ISA,QLD,,60,0,0,0,0,0,0,0
6113,2011-11-14 00:00:00,0,0.0,0.0,,NSW,,0,0,0,0,0,0,0,0
6114,2011-11-13 07:53:00,0,-28.0365,148.5798,ST GEORGE,QLD,,47,0,0,0,0,0,0,0
6116,2011-10-30 08:00:00,0,-28.4162,151.08,INGLEWOOD,QLD,,48,0,0,0,0,0,0,0
6119,2011-10-30 10:00:00,0,-28.1833,153.35,TALLEBUDGERA VALLEY,QLD,,0,0,0,0,0,0,0,0
6295,2011-11-24 15:30:00,0,-28.2154,152.0353,WARWICK,QLD,,0,0,0,0,0,0,0,0
6472,2011-12-14 00:00:00,0,-27.6304,152.6997,AMBERLEY,QLD,,66,0,0,0,0,0,0,0
6501,2006-01-03 00:00:00,0,-28.2154,152.0353,WARWICK,QLD,,50,0,0,0,0,0,0,0
6502,2006-01-07 00:00:00,0,-25.9167,153.1833,DOUBLE ISLAND POINT,QLD,,55,0,0,0,0,0,0,0
6503,2006-01-22 00:00:00,0,-25.8985,139.3515,BIRDSVILLE,QLD,,51,0,0,0,0,0,0,0
6504,2006-01-25 00:00:00,0,-25.8985,139.3515,BIRDSVILLE,QLD,,50,0,0,0,0,0,0,0
6505,2006-09-27 00:00:00,0,-27.5612,152.2755,GATTON,QLD,University of Queensland Gatton observing site.,49,0,0,0,0,0,0,0
6506,2006-11-15 00:00:00,0,-27.3929,153.0483,WAVELL HEIGHTS,QLD,University of Queensland Gatton observing site.,60,0,0,0,0,0,0,0
6507,2006-12-02 00:00:00,0,-28.0365,148.5798,ST GEORGE,QLD,University of Queensland Gatton observing site.,53,0,0,0,0,0,0,0
6508,2006-12-15 00:00:00,0,-27.434,151.7211,OAKEY,QLD,University of Queensland Gatton observing site.,58,0,0,0,0,0,0,0
6509,2006-12-16 00:00:00,0,-25.9167,153.1833,DOUBLE ISLAND POINT,QLD,,106,0,0,0,0,0,0,0
6510,2006-12-16 00:00:00,0,-26.1901,152.6655,GYMPIE,QLD,,68,0,0,0,0,0,0,0
6511,2007-01-02 00:00:00,0,-26.1901,152.6655,Winton,QLD,,49,0,0,0,0,0,0,0
6512,2007-01-14 00:00:00,0,-26.1901,152.6655,Winton,QLD,,56,0,0,0,0,0,0,0
6513,2007-01-14 00:00:00,0,-23.4424,144.2492,LONGREACH,QLD,,54,0,0,0,0,0,0,0
6514,2007-01-26 00:00:00,0,-27.6315,152.3939,LAIDLEY,QLD,,54,0,0,0,0,0,0,0
6515,2007-01-26 00:00:00,0,-27.7209,152.3753,MULGOWIE,QLD,,60,0,0,0,0,0,0,0
6516,2007-03-08 00:00:00,0,-20.726,139.494,MOUNT ISA,QLD,,49,0,0,0,0,0,0,0
6517,2007-03-09 00:00:00,0,-20.726,139.494,MOUNT ISA,QLD,,58,0,0,0,0,0,0,0
6518,2007-03-13 00:00:00,0,-20.726,139.494,MOUNT ISA,QLD,,54,0,0,0,0,0,0,0
6519,2007-03-13 00:00:00,0,-20.6563,141.7437,JULIA CREEK,QLD,,52,0,0,0,0,0,0,0
6520,2011-09-28 09:46:00,0,-31.0818,141.718,FOWLERS GAP,NSW,AWS,52,0,0,0,0,0,0,0
6521,2011-10-01 05:41:00,0,-28.8484,153.0511,CASINO,NSW,AWS,46,0,0,0,0,0,0,0
6522,2011-10-14 11:45:00,0,-31.0818,141.718,FOWLERS GAP,NSW,AWS,50,0,40,0,0,0,0,0
6523,2011-10-25 04:13:00,0,-30.0317,148.1012,WALGETT,NSW,AWS,50,0,36,0,0,0,0,0
6524,2011-10-25 07:10:00,0,-30.9484,150.2511,GUNNEDAH AERODROME,NSW,AWS,46,0,36,0,0,0,0,0
6525,2011-11-08 03:07:00,0,-34.7484,149.7346,GOULBURN,NSW,Goulburn AWS,49,0,0,0,0,0,0,0
6526,2011-11-08 06:32:00,0,-29.4152,142.0346,TIBOOBURRA,NSW,Tibooburra AWS,53,0,0,0,0,0,0,0
6527,2011-11-09 08:09:00,0,-32.0068,141.468,BROKEN HILL AIRPORT,NSW,Tibooburra AWS,50,0,0,0,0,0,0,0
6528,2011-11-12 10:23:00,0,-29.6817,152.9345,GRAFTON,NSW,,49,0,0,0,0,0,0,0
6529,2011-11-12 10:23:00,0,-29.6817,152.9345,GRAFTON,NSW,,49,0,0,0,0,0,0,0
6530,2011-11-13 07:55:00,0,-28.6151,153.0011,KYOGLE,NSW,,48,0,0,0,0,0,0,0
6531,2011-11-29 09:27:00,0,-33.9317,147.1846,WEST WYALONG AIRPORT,NSW,AWS,72,0,0,0,0,0,0,1
6532,2011-11-29 09:36:00,0,-35.1318,147.4179,WAGGA WAGGA AIRPORT,NSW,AWS,50,0,0,0,0,0,0,0
6533,2011-11-29 11:36:00,0,-33.0651,147.2012,CONDOBOLIN AERODROME,NSW,AWS,55,0,0,0,0,0,0,0
6534,2011-11-29 11:27:00,0,-33.0651,147.2012,CONDOBOLIN AERODROME,NSW,AWS,49,0,0,0,0,0,0,0
6535,2011-11-29 12:28:00,0,-33.3817,148.0012,FORBES,NSW,AWS,62,0,0,0,0,0,0,0
6536,2011-11-29 05:30:00,0,-35.1318,147.4179,WAGGA WAGGA AIRPORT,NSW,Peter Stinton,48,0,0,0,0,0,0,0
6537,2011-11-29 09:00:00,0,-35.2818,147.0846,THE ROCK HILL,NSW,Leigh Rainbird,53,0,0,0,0,0,0,0
6538,2011-10-22 06:00:00,0,-36.7625,144.2777,BENDIGO,VIC,Wayne,0,0,0,0,0,0,0,0
6539,2011-10-28 06:00:00,0,-37.7394,145.2216,WARRANDYTE,VIC,SES via Phil King,0,0,0,0,0,0,0,0
6540,2011-10-28 06:00:00,0,-38.3571,144.917,ROSEBUD,VIC,SES via Phil King,0,0,0,0,0,0,0,0
6541,2011-10-28 06:00:00,0,-38.1598,145.1338,FRANKSTON,VIC,SES via Phil King,0,0,0,0,0,0,0,0
6542,2011-10-28 06:00:00,0,-38.1065,145.1306,SEAFORD,VIC,SES via Phil King,0,0,0,0,0,0,0,0
6543,2011-10-28 06:00:00,0,-38.4011,145.6452,WOODLEIGH,VIC,SES via Phil King,0,0,0,0,0,0,0,0
6544,2011-11-09 07:50:00,0,-38.228,145.1755,SOMERVILLE,VIC,Andrew,54,0,0,0,0,0,0,0
6545,2011-11-09 08:15:00,15,-38.0773,145.4779,PAKENHAM,VIC,Dean Sgarbossa,50,0,0,0,0,0,0,0
6546,2011-11-09 03:00:00,3,-38.3862,142.2309,PORT FAIRY,VIC,Port Fairy AWS,55,260,46,260,0,0,0,0
6547,2011-11-09 04:22:00,12,-38.8583,143.5105,CAPE OTWAY LIGHTHOUSE,VIC,Cape Otway AWS,54,260,38,260,0,0,0,0
6548,2011-11-09 01:50:00,0,-36.1265,146.8833,WODONGA,VIC,SES SDO,0,0,0,0,0,100,0,0
6549,2011-11-09 07:30:00,0,-37.1089,144.0628,NEWSTEAD,VIC,Clyve Herbert,70,0,0,0,0,0,0,0
6550,2011-11-29 06:15:00,0,-38.2122,146.4746,LATROBE VALLEY AERODROME,VIC,,66,0,0,0,0,0,0,0
6551,2011-12-17 04:40:00,0,-37.3722,141.2924,DERGHOLM,VIC,Murray Davis,0,0,0,0,0,0,70,0
6552,2011-11-09 10:00:00,1,-37.423,145.7082,BUXTON,VIC,Graham Eddy,50,225,0,0,0,0,0,0
6553,2011-12-25 09:51:00,9,-37.21,145.84,Eildon,VIC,Eildon Fire Tower AWS,62,140,42,260,0,0,0,0
6554,2012-01-11 00:31:00,2,-37.86,144.96,St Kilda,VIC,St Kilda AWS,66,230,47,230,0,0,0,1
6555,2012-02-16 06:57:00,3,-37.21,145.84,Eildon,VIC,Eildon Fire Tower AWS,46,260,37,260,0,0,0,0
6556,2012-02-26 09:11:00,5,-37.6664,144.8458,MELBOURNE AIRPORT,VIC,Melbourne Airport AWS,53,330,41,330,0,0,0,0
6557,2012-02-27 04:41:00,15,-34.2316,142.0815,MILDURA AIRPORT,VIC,Mildura AWS,48,310,38,310,0,0,0,0
6558,2012-03-14 09:57:00,19,-38.0958,144.5361,POINT WILSON,VIC,Point Wilson AWS,63,0,46,10,0,0,0,0
6559,2012-03-14 06:20:00,0,-36.3613,144.6985,ROCHESTER,VIC,Wayne Grinsize (SES),0,0,0,0,0,0,0,0
6560,2012-04-22 06:44:00,1,-37.8642,144.9639,St Kilda,VIC,St Kilda AWS,52,280,35,280,0,0,0,0
6561,2012-04-22 07:17:00,43,-37.145,146.4394,Mount Buller,VIC,Mount Buller AWS,53,10,38,10,0,0,0,0
6562,2011-11-29 05:30:00,0,-35.1152,147.3679,WAGGA WAGGA,NSW,,0,0,48,0,0,0,0,0
6563,2011-12-25 11:25:00,0,-31.0818,141.718,FOWLERS GAP,NSW,Severe Weather Forecaster,49,0,0,0,0,0,0,0
6564,2012-01-08 07:52:00,0,-31.2651,149.2679,COONABARABRAN,NSW,severe weather forecaster,56,0,0,0,0,0,0,0
6565,2012-01-27 01:29:00,0,-32.0068,141.468,BROKEN HILL AIRPORT,NSW,Severe weather forecaster,52,0,0,0,0,0,0,0
6566,2012-02-12 10:20:00,0,-30.3151,153.1345,COFFS HARBOUR,NSW,Severe weather forecaster,53,0,0,0,0,0,0,0
6567,2012-02-20 05:25:00,0,-31.0817,150.9345,TAMWORTH,NSW,severe weather forecaster,49,0,35,0,0,0,0,0
6568,2011-11-29 09:00:00,15,-34.8651,150.5846,NORTH NOWRA,NSW,Spotter,98,60,0,0,0,0,0,0
6569,2011-11-09 01:00:00,0,-36.0995,147.0611,BELLBRIDGE,VIC,SES,0,0,0,0,0,20,0,0
6570,2011-11-09 07:30:00,0,-37.3583,144.5272,WOODEND,VIC,SES,0,0,0,0,0,0,0,0
6571,2011-12-19 05:28:00,6,-42.882,147.323,HOBART,TAS,Hobart Airport AWS,37,320,25,280,0,0,0,0
6572,2010-07-06 14:46:00,0,-34.7318,138.9479,MOUNT CRAWFORD FOREST,SA,,49,0,0,0,0,0,0,0
6573,2011-11-08 18:15:00,0,-29.0388,134.7216,COOBER PEDY AERODROME,SA,,50,0,0,0,0,0,0,0
6574,2011-11-08 20:09:00,0,-31.1651,136.8134,WOOMERA,SA,,53,0,0,0,0,0,0,0
6575,2011-11-08 17:39:00,0,-30.7081,134.5701,TARCOOLA,SA,,49,0,0,0,0,0,0,0
6577,2011-11-08 21:51:00,0,-29.6477,138.0649,MARREE,SA,,60,0,0,0,0,0,0,0
6578,2011-11-08 19:08:00,0,-28.1087,140.1919,MOOMBA,SA,,51,0,0,0,0,0,0,0
6579,2011-11-08 16:48:00,0,-32.1285,133.6985,CEDUNA AIRPORT,SA,,52,0,0,0,0,0,0,0
6580,2011-11-09 02:21:00,0,-29.6477,138.0649,MARREE,SA,,65,0,0,0,0,0,0,0
6581,2011-11-08 20:23:00,0,-30.5586,136.9,ROXBY DOWNS,SA,,59,0,0,0,0,0,0,0
